[{"lon":21.433319,"lat":41.9936737,"name":"Питу Гули","type":"monument","region":"Skopje Region"},{"lon":21.4233737,"lat":42.0032812,"name":"Гоце Делчев","type":"monument","region":"Skopje Region"},{"lon":21.4338778,"lat":42.0008716,"name":"Влез на Скопското кале","type":"city_gate","region":"Skopje Region"},{"lon":20.960153,"lat":42.0195738,"name":"Тетовско Кале","type":"ruins","region":"Polog Region"},{"lon":22.0228463,"lat":41.4325212,"name":"Костурница","type":"monument","region":"Vardar Region"},{"lon":20.7914836,"lat":41.1155576,"name":"Лихнид","type":"archaeological_site","region":"Southwestern Region"},{"lon":21.257898,"lat":41.3377228,"name":"Мечкин Камен","type":"monument","region":"Vardar Region"},{"lon":21.2273776,"lat":41.3880768,"name":"Слива","type":"monument","region":"Vardar Region"},{"lon":22.4069917,"lat":41.9188903,"name":"Споменик на слободата","type":"monument","region":"Skopje Region"},{"lon":22.3507979,"lat":42.2916094,"name":"WWII Battle - 17th Macedonian Brigade ws Bulgarian army","type":"monument","region":"Polog Region"},{"lon":20.679835,"lat":41.1776616,"name":"Споменик на Револуцијата","type":"monument","region":"Southwestern Region"},{"lon":21.4314474,"lat":41.9959035,"name":"Споменик на Александар Македонски","type":"monument","region":"Skopje Region"},{"lon":22.9650942,"lat":41.363211,"name":"5","type":"boundary_stone","region":"Eastern Region"},{"lon":20.5620379,"lat":41.6346281,"name":"Lukov","type":"memorial","region":"Polog Region"},{"lon":21.3527926,"lat":42.0586697,"name":"Rimska crkva","type":"archaeological_site","region":"Skopje Region"},{"lon":21.3548716,"lat":42.0843452,"name":"Давина Кула","type":"archaeological_site","region":"Skopje Region"},{"lon":21.2786993,"lat":42.0587494,"name":"Голема Кула - Кучково","type":"archaeological_site","region":"Skopje Region"},{"lon":21.2844339,"lat":42.0585741,"name":"Мала Кула - Кучково","type":"archaeological_site","region":"Skopje Region"},{"lon":22.9655541,"lat":41.3534717,"name":"4","type":"boundary_stone","region":"Eastern Region"},{"lon":22.964952,"lat":41.3649798,"name":"6","type":"boundary_stone","region":"Eastern Region"},{"lon":22.9645721,"lat":41.3667003,"name":"7","type":"boundary_stone","region":"Eastern Region"},{"lon":22.9643552,"lat":41.3682443,"name":"8","type":"boundary_stone","region":"Eastern Region"},{"lon":22.9640182,"lat":41.3692174,"name":"9","type":"boundary_stone","region":"Eastern Region"},{"lon":22.9637614,"lat":41.3704535,"name":"10","type":"boundary_stone","region":"Eastern Region"},{"lon":22.963565,"lat":41.371345,"name":"11","type":"boundary_stone","region":"Eastern Region"},{"lon":22.9631755,"lat":41.3721284,"name":"12","type":"boundary_stone","region":"Eastern Region"},{"lon":22.9630541,"lat":41.3728977,"name":"13","type":"boundary_stone","region":"Eastern Region"},{"lon":22.9628253,"lat":41.3739433,"name":"14","type":"boundary_stone","region":"Eastern Region"},{"lon":22.9632889,"lat":41.3755256,"name":"15","type":"boundary_stone","region":"Eastern Region"},{"lon":22.9621967,"lat":41.3786524,"name":"16","type":"boundary_stone","region":"Eastern Region"},{"lon":22.9628726,"lat":41.3839589,"name":"19","type":"boundary_stone","region":"Eastern Region"},{"lon":22.9631941,"lat":41.3859009,"name":"20","type":"boundary_stone","region":"Eastern Region"},{"lon":22.9642834,"lat":41.3891975,"name":"21","type":"boundary_stone","region":"Eastern Region"},{"lon":22.9667134,"lat":41.3931081,"name":"22","type":"boundary_stone","region":"Eastern Region"},{"lon":22.966126,"lat":41.3964028,"name":"25","type":"boundary_stone","region":"Eastern Region"},{"lon":22.9615881,"lat":41.4070803,"name":"27","type":"boundary_stone","region":"Eastern Region"},{"lon":22.9520216,"lat":41.4174975,"name":"28","type":"boundary_stone","region":"Eastern Region"},{"lon":22.9746504,"lat":41.4400834,"name":"30","type":"boundary_stone","region":"Eastern Region"},{"lon":22.5899869,"lat":42.1102442,"name":"Куцолиница / 86","type":"boundary_stone","region":"Eastern Region"},{"lon":22.5770819,"lat":42.1119645,"name":"87","type":"boundary_stone","region":"Eastern Region"},{"lon":22.5104573,"lat":42.1551091,"name":"90","type":"boundary_stone","region":"Eastern Region"},{"lon":22.3705411,"lat":42.3089612,"name":"Китка","type":"boundary_stone","region":"Polog Region"},{"lon":22.5162744,"lat":42.1580093,"name":"Руен","type":"boundary_stone","region":"Eastern Region"},{"lon":21.7200501,"lat":42.1355189,"name":"Zena","type":"monument","region":"Skopje Region"},{"lon":21.398848,"lat":42.0766913,"name":"Gradiste kaj s.Brazda","type":"archaeological_site","region":"Skopje Region"},{"lon":21.2991931,"lat":41.9505936,"name":"Манастир Св. Андреј","type":"monument","region":"Skopje Region"},{"lon":21.4617772,"lat":42.0017233,"name":"Филип Втори","type":"monument","region":"Skopje Region"},{"lon":21.4349949,"lat":41.9984602,"name":"Филип II Македонски","type":"memorial","region":"Skopje Region"},{"lon":21.4254968,"lat":41.9983057,"name":"Св. Климент Охридски","type":"memorial","region":"Skopje Region"},{"lon":21.437162,"lat":41.9993163,"name":"Скендербег","type":"memorial","region":"Skopje Region"},{"lon":21.1195933,"lat":40.8570205,"name":"Маркова Нога","type":"monument","region":"Southwestern Region"},{"lon":21.809838,"lat":42.1706665,"name":"Костоперска Карпа","type":"archaeological_site","region":"Skopje Region"},{"lon":21.953118,"lat":42.2633818,"name":"Кокино","type":"archaeological_site","region":"Polog Region"},{"lon":22.9351752,"lat":41.340338,"name":"2","type":"boundary_stone","region":"Eastern Region"},{"lon":22.9527929,"lat":41.3524982,"name":"3","type":"boundary_stone","region":"Eastern Region"},{"lon":21.7194275,"lat":42.1355778,"name":"Јосип Броз - Тито","type":"monument","region":"Skopje Region"},{"lon":22.2541295,"lat":41.4094203,"name":"Марков Град","type":"ruins","region":"Vardar Region"},{"lon":21.8500367,"lat":42.2782511,"name":"Меморијален центар АСНОМ","type":"memorial","region":"Polog Region"},{"lon":20.9108574,"lat":41.794932,"name":"Sahat Kula","type":"monument","region":"Polog Region"},{"lon":21.1545235,"lat":42.1068795,"name":"Орашко Кале","type":"ruins","region":"Skopje Region"},{"lon":20.9702432,"lat":41.5119269,"name":"Саат кула","type":"monument","region":"Polog Region"},{"lon":21.7840512,"lat":41.7140782,"name":"Саат кула","type":"monument","region":"Polog Region"},{"lon":22.4937679,"lat":41.2775784,"name":"Isar / Idomenae","type":"archaeological_site","region":"Vardar Region"},{"lon":21.7192303,"lat":42.1346962,"name":"Куде сат","type":"monument","region":"Skopje Region"},{"lon":21.7629669,"lat":41.4293251,"name":"Ножот","type":"memorial","region":"Vardar Region"},{"lon":21.5519842,"lat":41.3451182,"name":"Народен Херој Кузман Јосифоски-Питу","type":"monument","region":"Vardar Region"},{"lon":21.554267,"lat":41.3451518,"name":"Пеце Атанасоски","type":"monument","region":"Vardar Region"},{"lon":21.5522173,"lat":41.3452617,"name":"Ѓорче Петров","type":"monument","region":"Vardar Region"},{"lon":21.2480535,"lat":41.3748344,"name":"Питу Гули","type":"tomb","region":"Vardar Region"},{"lon":21.2482546,"lat":41.3748686,"name":"Тоше Проески","type":"tomb","region":"Vardar Region"},{"lon":21.2463296,"lat":41.3736665,"name":"Никола Карев","type":"monument","region":"Vardar Region"},{"lon":22.9625526,"lat":41.3818263,"name":"18","type":"boundary_stone","region":"Eastern Region"},{"lon":22.965619,"lat":41.3969922,"name":"26","type":"boundary_stone","region":"Eastern Region"},{"lon":22.9762168,"lat":41.4533981,"name":"31","type":"boundary_stone","region":"Eastern Region"},{"lon":22.9662076,"lat":41.4723462,"name":"32","type":"boundary_stone","region":"Eastern Region"},{"lon":22.9585216,"lat":41.4930169,"name":"34","type":"boundary_stone","region":"Eastern Region"},{"lon":22.9605185,"lat":41.5295396,"name":"35","type":"boundary_stone","region":"Eastern Region"},{"lon":22.9604199,"lat":41.5423737,"name":"36","type":"boundary_stone","region":"Eastern Region"},{"lon":21.3368929,"lat":41.024615,"name":"Стефан Наумов-Стив","type":"memorial","region":"Southwestern Region"},{"lon":21.2497316,"lat":41.3649692,"name":"Споменик на Питу Гули","type":"monument","region":"Vardar Region"},{"lon":21.2484409,"lat":41.3653856,"name":"Наум Наумоски-Борче","type":"monument","region":"Vardar Region"},{"lon":21.9751675,"lat":41.5516379,"name":"Римски театар","type":"ruins","region":"Polog Region"},{"lon":20.951411,"lat":41.5126479,"name":"99.4-053","type":"locomotive","region":"Polog Region"},{"lon":22.5001795,"lat":41.1458586,"name":"Два Коња","type":"monument","region":"Eastern Region"},{"lon":21.9862589,"lat":42.0836218,"name":"Цоцев Камен","type":"archaeological_site","region":"Skopje Region"},{"lon":20.9119981,"lat":40.9765203,"name":"Преспанско Советување","type":"monument","region":"Southwestern Region"},{"lon":21.5564074,"lat":41.3475544,"name":"Карпалак","type":"monument","region":"Vardar Region"},{"lon":21.7853235,"lat":42.1491368,"name":"Zebrnjak","type":"memorial","region":"Skopje Region"},{"lon":20.7995376,"lat":41.1126936,"name":"Свети Климент Охридски","type":"monument","region":"Southwestern Region"},{"lon":20.799994,"lat":41.1120476,"name":"Свети Кирил и Методиј","type":"monument","region":"Southwestern Region"},{"lon":20.7990226,"lat":41.1122955,"name":"Свети Наум Охридски Чудотворец","type":"monument","region":"Southwestern Region"},{"lon":20.7977703,"lat":41.1124606,"name":"Долна Порта","type":"city_gate","region":"Southwestern Region"},{"lon":21.9627449,"lat":42.0853984,"name":"Мачка камен","type":"archaeological_site","region":"Skopje Region"},{"lon":21.0770931,"lat":41.4182291,"name":"Христо Узунов","type":"monument","region":"Vardar Region"},{"lon":20.8135106,"lat":41.0596796,"name":"Sv. Nikola","type":"wayside_shrine","region":"Southwestern Region"},{"lon":20.9636151,"lat":41.9062629,"name":"Споменик на жртви од НОВ","type":"monument","region":"Polog Region"},{"lon":21.5524989,"lat":41.3460556,"name":"Александар Македонски","type":"monument","region":"Vardar Region"},{"lon":21.5528281,"lat":41.3462544,"name":"Методија Андонов-Ченто","type":"monument","region":"Vardar Region"},{"lon":21.553243,"lat":41.3462194,"name":"Св. Никола","type":"monument","region":"Vardar Region"},{"lon":21.7360635,"lat":41.822914,"name":"Масакр кај Пуста Кула","type":"memorial","region":"Skopje Region"},{"lon":21.5479723,"lat":41.3434323,"name":"Карпалак 2001","type":"monument","region":"Vardar Region"},{"lon":21.554646,"lat":41.3341123,"name":"Крипта","type":"monument","region":"Vardar Region"},{"lon":21.5548417,"lat":41.345456,"name":"Итар Пејо","type":"monument","region":"Vardar Region"},{"lon":22.8187714,"lat":41.975162,"name":"Dedo Jakim - Mill","type":"monument","region":"Eastern Region"},{"lon":22.8193451,"lat":41.9769054,"name":"Ilin Kamen","type":"monument","region":"Eastern Region"},{"lon":22.7768724,"lat":41.9668611,"name":"Гоце Делчев (Биста)","type":"monument","region":"Eastern Region"},{"lon":22.7742882,"lat":41.9643843,"name":"Гоце Делчев","type":"monument","region":"Eastern Region"},{"lon":22.7716387,"lat":41.9653801,"name":"Споменик на паднати борци во НОБ","type":"monument","region":"Eastern Region"},{"lon":22.7954411,"lat":41.9425359,"name":"Кула","type":"monument","region":"Eastern Region"},{"lon":21.426153,"lat":41.9952169,"name":"Josip Broz Tito","type":"memorial","region":"Skopje Region"},{"lon":21.4313461,"lat":41.9682709,"name":"Маркови Кули","type":"ruins","region":"Skopje Region"},{"lon":22.5093733,"lat":41.139367,"name":"Леонид Јанков","type":"monument","region":"Eastern Region"},{"lon":21.1211491,"lat":40.8536596,"name":"Г177","type":"boundary_stone","region":"Southwestern Region"},{"lon":21.1255774,"lat":40.8545802,"name":"Г176","type":"boundary_stone","region":"Southwestern Region"},{"lon":21.1306578,"lat":40.8554344,"name":"Г175-2","type":"boundary_stone","region":"Southwestern Region"},{"lon":21.1326005,"lat":40.854785,"name":"Г175-1","type":"boundary_stone","region":"Southwestern Region"},{"lon":21.4339766,"lat":41.9977079,"name":"Св. Кирил и Методиј","type":"memorial","region":"Skopje Region"},{"lon":21.4341509,"lat":41.9975624,"name":"Св. Климент Охридски и Наум Охридски Чудотворец","type":"memorial","region":"Skopje Region"},{"lon":21.4313414,"lat":41.9953917,"name":"Цар Самоил","type":"memorial","region":"Skopje Region"},{"lon":21.4321474,"lat":41.9964949,"name":"Даме Груев","type":"memorial","region":"Skopje Region"},{"lon":21.4323054,"lat":41.9968799,"name":"Јустинијан I","type":"memorial","region":"Skopje Region"},{"lon":21.4344182,"lat":41.9979046,"name":"Олимпија","type":"memorial","region":"Skopje Region"},{"lon":21.4337226,"lat":41.993303,"name":"Прометеј","type":"monument","region":"Skopje Region"},{"lon":21.439106,"lat":41.9834333,"name":"Тодор Александров","type":"monument","region":"Skopje Region"},{"lon":21.4369668,"lat":41.986749,"name":"Стара Рампа","type":"monument","region":"Skopje Region"},{"lon":21.4317487,"lat":41.9936684,"name":"Бегова кула","type":"monument","region":"Skopje Region"},{"lon":22.7549207,"lat":41.4166941,"name":"Гоце Делчев","type":"monument","region":"Eastern Region"},{"lon":21.6749495,"lat":41.3661079,"name":"Борка Талески-Модерното / Лазо Филиповски-Лавски","type":"memorial","region":"Vardar Region"},{"lon":20.7412554,"lat":40.9142149,"name":"Свети Наум","type":"memorial","region":"Southwestern Region"},{"lon":22.1903758,"lat":41.736405,"name":"Споменик на загинатите евреи","type":"monument","region":"Polog Region"},{"lon":21.4375046,"lat":42.000853,"name":"Мустафа-пашина џамија","type":"monument","region":"Skopje Region"},{"lon":21.4333848,"lat":41.9130467,"name":"Vila Varvarka","type":"castle","region":"Skopje Region"},{"lon":21.4108745,"lat":41.9949279,"name":"Споменик на Јуриј Гагарин","type":"monument","region":"Skopje Region"},{"lon":21.4332009,"lat":41.9930188,"name":"Никола Карев","type":"monument","region":"Skopje Region"},{"lon":21.4283664,"lat":42.0016804,"name":"Вера Јоциќ","type":"monument","region":"Skopje Region"},{"lon":21.5532375,"lat":41.3455416,"name":"Марко Мрњавчевиќ","type":"monument","region":"Vardar Region"},{"lon":21.5505634,"lat":41.3450704,"name":"Круме Кепески","type":"monument","region":"Vardar Region"},{"lon":21.5506707,"lat":41.3451329,"name":"Блаже Конески","type":"monument","region":"Vardar Region"},{"lon":21.5505581,"lat":41.3451792,"name":"Марко Цепенков","type":"monument","region":"Vardar Region"},{"lon":20.9663459,"lat":41.5130946,"name":"Китино Кале","type":"castle","region":"Polog Region"},{"lon":22.3602199,"lat":42.3110963,"name":"Шуплив Камен","type":"boundary_stone","region":"Polog Region"},{"lon":22.9282524,"lat":41.3413087,"name":"1a","type":"boundary_stone","region":"Eastern Region"},{"lon":20.7836677,"lat":41.2788101,"name":"Ботун","type":"memorial","region":"Vardar Region"},{"lon":22.5006786,"lat":41.158263,"name":"Споменик на слободата","type":"monument","region":"Eastern Region"},{"lon":21.5025867,"lat":41.3738524,"name":"Борецот","type":"monument","region":"Vardar Region"},{"lon":20.6783749,"lat":41.1736526,"name":"Сергеј Есенин","type":"monument","region":"Southwestern Region"},{"lon":22.1823517,"lat":42.0769461,"name":"Емин-бегова кула","type":"monument","region":"Skopje Region"},{"lon":22.1826261,"lat":42.0768838,"name":"Крстева кула","type":"monument","region":"Skopje Region"},{"lon":22.6878453,"lat":41.1949939,"name":"Споменик „Солунски фронт“ од I светска војна","type":"monument","region":"Eastern Region"},{"lon":22.1822635,"lat":42.0768628,"name":"Хаџикостова кула","type":"monument","region":"Skopje Region"},{"lon":22.1818109,"lat":42.0792053,"name":"Саат-кула","type":"monument","region":"Skopje Region"},{"lon":22.1809805,"lat":42.0788289,"name":"Златковичева кула","type":"monument","region":"Skopje Region"},{"lon":22.1794714,"lat":42.0786957,"name":"Симиќева кула","type":"monument","region":"Skopje Region"},{"lon":22.6796979,"lat":41.4409796,"name":"Струмица-Кристал-64","type":"monument","region":"Eastern Region"},{"lon":20.7958058,"lat":41.1142035,"name":"Григор Прличев","type":"tomb","region":"Southwestern Region"},{"lon":22.9275511,"lat":41.3384543,"name":"Тумба / Τούμπα","type":"boundary_stone","region":"Eastern Region"},{"lon":21.3415263,"lat":41.006774,"name":"Св. Троица","type":"yes","region":"Southwestern Region"},{"lon":22.5039935,"lat":41.8845661,"name":"Теракота","type":"memorial","region":"Eastern Region"},{"lon":20.6778868,"lat":41.1745272,"name":"Никола Кукунешоски - Дунѓерски","type":"memorial","region":"Southwestern Region"},{"lon":20.6779485,"lat":41.1747311,"name":"Крсте Јовановски","type":"memorial","region":"Southwestern Region"},{"lon":20.6779833,"lat":41.1749451,"name":"Димче Кошаркоски","type":"memorial","region":"Southwestern Region"},{"lon":20.6782194,"lat":41.1756537,"name":"Боро Шаин","type":"memorial","region":"Southwestern Region"},{"lon":20.6781791,"lat":41.1755185,"name":"Јово Стефановски - Риле","type":"memorial","region":"Southwestern Region"},{"lon":20.6781416,"lat":41.1753893,"name":"Разме Малески","type":"memorial","region":"Southwestern Region"},{"lon":20.6781067,"lat":41.1752843,"name":"Петре Гончески - Гиле","type":"memorial","region":"Southwestern Region"},{"lon":20.8033957,"lat":41.05924,"name":"Св. Благовештение","type":"wayside_shrine","region":"Southwestern Region"},{"lon":21.4323793,"lat":41.9963577,"name":"Гоце Делчев","type":"memorial","region":"Skopje Region"},{"lon":21.9665342,"lat":42.1003011,"name":"Konjuh","type":"archaeological_site","region":"Skopje Region"},{"lon":21.9658672,"lat":42.0949995,"name":"Rotonda Konjuh","type":"ruins","region":"Skopje Region"},{"lon":21.9606298,"lat":42.0995746,"name":"Bosko Chapel","type":"wayside_shrine","region":"Skopje Region"},{"lon":22.289829,"lat":41.7995125,"name":"Bargala","type":"archaeological_site","region":"Polog Region"},{"lon":22.7542141,"lat":41.3825161,"name":"Roman Bathhouse","type":"archaeological_site","region":"Eastern Region"},{"lon":21.4434502,"lat":42.0169571,"name":"Doma","type":"monument","region":"Skopje Region"},{"lon":21.4319995,"lat":41.9952759,"name":"Спомен плоча на Мајка Тереза","type":"memorial","region":"Skopje Region"},{"lon":20.8078335,"lat":41.1057278,"name":"Ард ден Долард","type":"memorial","region":"Southwestern Region"},{"lon":21.4422187,"lat":41.958616,"name":"Резиденцијата Главинов","type":"castle","region":"Skopje Region"},{"lon":21.4306041,"lat":41.9957136,"name":"Методија Андонов - Ченто","type":"memorial","region":"Skopje Region"},{"lon":20.9681527,"lat":41.9974433,"name":"terminal mitnitsa tetovo","type":"monument","region":"Polog Region"},{"lon":21.2926787,"lat":41.9885405,"name":"patarina-160","type":"monument","region":"Skopje Region"},{"lon":21.9562049,"lat":41.8289715,"name":"Kanda - Geoglif Sv. Nikole","type":"monument","region":"Skopje Region"},{"lon":22.6569551,"lat":41.7213441,"name":"Споменик на Малешевскиот (Малешки) народноослободителен одред","type":"memorial","region":"Eastern Region"},{"lon":20.9282003,"lat":41.0043725,"name":"Кале","type":"archaeological_site","region":"Southwestern Region"},{"lon":22.5905605,"lat":41.9856377,"name":"Калата","type":"archaeological_site","region":"Eastern Region"},{"lon":21.628172,"lat":41.6952366,"name":"Бањичко Кале","type":"archaeological_site","region":"Polog Region"},{"lon":20.7630424,"lat":41.3747079,"name":"Mirče Acev Bataljon","type":"monument","region":"Vardar Region"},{"lon":21.4307922,"lat":41.9943288,"name":"2 musicians and one dancing man","type":"memorial","region":"Skopje Region"},{"lon":20.795694,"lat":41.1120953,"name":"Коста Абраш","type":"memorial","region":"Southwestern Region"},{"lon":20.8071328,"lat":41.1124032,"name":"Henry Dunant","type":"memorial","region":"Southwestern Region"},{"lon":21.3684104,"lat":41.2754595,"name":"Љубе Грујоски","type":"monument","region":"Vardar Region"},{"lon":22.7227512,"lat":41.1857198,"name":"Споменик на Дојрана","type":"monument","region":"Eastern Region"},{"lon":22.7233826,"lat":41.1825947,"name":"Чешма Света Петка","type":"monument","region":"Eastern Region"},{"lon":20.7762352,"lat":41.1850048,"name":"AXX110 / RA-42390","type":"memorial","region":"Southwestern Region"},{"lon":21.6157628,"lat":41.9779001,"name":"PMK301 / PH-KXL","type":"memorial","region":"Skopje Region"},{"lon":21.5605466,"lat":41.3724643,"name":"Дабнички масакр","type":"memorial","region":"Vardar Region"},{"lon":21.6536957,"lat":41.2064953,"name":"Толе Паша","type":"monument","region":"Vardar Region"},{"lon":21.5476216,"lat":42.022416,"name":"Ацо Ангеловски","type":"memorial","region":"Skopje Region"},{"lon":21.5480468,"lat":42.0225556,"name":"Кирил Петрушевски","type":"memorial","region":"Skopje Region"},{"lon":21.5486015,"lat":42.0227044,"name":"Ерол Готак","type":"memorial","region":"Skopje Region"},{"lon":21.1660504,"lat":41.9764851,"name":"Нане Наумоски","type":"memorial","region":"Skopje Region"},{"lon":21.1773385,"lat":41.977847,"name":"Сашо Китаноски","type":"memorial","region":"Skopje Region"},{"lon":21.1679024,"lat":41.97753,"name":"Бранко Секулоски","type":"memorial","region":"Skopje Region"},{"lon":21.1745241,"lat":41.9781971,"name":"Горан Миноски","type":"memorial","region":"Skopje Region"},{"lon":21.1713626,"lat":41.977893,"name":"Марко Деспотоски","type":"memorial","region":"Skopje Region"},{"lon":21.1675604,"lat":41.9767167,"name":"Ердован Шабаноски","type":"memorial","region":"Skopje Region"},{"lon":21.1694976,"lat":41.9772958,"name":"Љубе Грујоски","type":"memorial","region":"Skopje Region"},{"lon":21.1717935,"lat":41.9770406,"name":"Дарко Велјаноски","type":"memorial","region":"Skopje Region"},{"lon":21.1747438,"lat":41.9767893,"name":"Веби Рушитоски","type":"memorial","region":"Skopje Region"},{"lon":21.1770879,"lat":41.977042,"name":"Пеце Секулоски","type":"memorial","region":"Skopje Region"},{"lon":21.6256855,"lat":41.3575814,"name":"Карпалак","type":"memorial","region":"Vardar Region"},{"lon":22.0284286,"lat":41.4014262,"name":"Масакр во Ваташа","type":"memorial","region":"Vardar Region"},{"lon":21.5583071,"lat":41.3428704,"name":"Пере Тошев","type":"tomb","region":"Vardar Region"},{"lon":20.8721449,"lat":41.4436592,"name":"Duko Tasev","type":"memorial","region":"Vardar Region"},{"lon":20.9229426,"lat":41.4831122,"name":"Гоце Делчев","type":"monument","region":"Vardar Region"},{"lon":20.9222623,"lat":41.483575,"name":"Христо Узунов","type":"monument","region":"Vardar Region"},{"lon":20.7949057,"lat":41.1150206,"name":"Горна Порта","type":"city_gate","region":"Southwestern Region"},{"lon":20.9658462,"lat":41.4528994,"name":"Битката на Ѓурѓејца","type":"battlefield","region":"Vardar Region"},{"lon":21.942062,"lat":41.8646892,"name":"Споменик Св. Никола","type":"monument","region":"Skopje Region"},{"lon":21.9410121,"lat":41.8644645,"name":"Споменик „Лазар Колишевски“","type":"monument","region":"Skopje Region"},{"lon":21.9386585,"lat":41.8627557,"name":"Св. Илија","type":"memorial","region":"Skopje Region"},{"lon":22.412778,"lat":41.9156602,"name":"Споменик на Никола Карев","type":"monument","region":"Skopje Region"},{"lon":21.5629735,"lat":41.3464944,"name":"Кире Гаврилоски-Јане / Круме Волнароски-Коља","type":"memorial","region":"Vardar Region"},{"lon":21.5572532,"lat":41.3421058,"name":"Александар Македонски","type":"memorial","region":"Vardar Region"},{"lon":21.2464617,"lat":41.3761727,"name":"Мирослав Јоксимовиќ","type":"memorial","region":"Vardar Region"},{"lon":21.2488407,"lat":41.3653786,"name":"Кица Петрески","type":"monument","region":"Vardar Region"},{"lon":21.6650899,"lat":41.8668125,"name":"VAM-304","type":"monument","region":"Skopje Region"},{"lon":22.6491133,"lat":41.4498577,"name":"МАР-7712","type":"monument","region":"Eastern Region"},{"lon":20.6489384,"lat":41.366045,"name":"1. Бригада","type":"memorial","region":"Vardar Region"},{"lon":21.4292436,"lat":41.9998632,"name":"Ослободителите на Скопје","type":"monument","region":"Skopje Region"},{"lon":21.5549177,"lat":41.3435127,"name":"08.12.1941","type":"memorial","region":"Vardar Region"},{"lon":20.9185104,"lat":42.0673767,"name":"Вејце","type":"monument","region":"Polog Region"},{"lon":21.4485415,"lat":41.9998618,"name":"Генерал Михаило Апостолски","type":"monument","region":"Skopje Region"},{"lon":21.4506665,"lat":41.9988251,"name":"Генерал Михајло Апостолски","type":"memorial","region":"Skopje Region"},{"lon":21.4412009,"lat":41.9960184,"name":"Krste Petkov Misirkov","type":"monument","region":"Skopje Region"},{"lon":21.4408764,"lat":41.9960802,"name":"Blaže Koneski","type":"monument","region":"Skopje Region"},{"lon":21.0216359,"lat":41.6560282,"name":"Sultana","type":"memorial","region":"Polog Region"},{"lon":20.881732,"lat":41.7192252,"name":"Xhemë Hasa","type":"memorial","region":"Polog Region"},{"lon":20.9510739,"lat":41.5964956,"name":"Albanian Mother","type":"memorial","region":"Polog Region"},{"lon":21.3208996,"lat":41.0108476,"name":"Св. Георгиј","type":"wayside_shrine","region":"Southwestern Region"},{"lon":20.799333,"lat":41.1119818,"name":"Фаќач на чесниот крст","type":"monument","region":"Southwestern Region"},{"lon":21.4326511,"lat":41.9945304,"name":"Павел Шатев","type":"monument","region":"Skopje Region"},{"lon":21.4332709,"lat":41.993726,"name":"Невена Георгиева-Дуња","type":"memorial","region":"Skopje Region"},{"lon":21.0288552,"lat":42.0640097,"name":"Ѓоко Лазаревски","type":"monument","region":"Skopje Region"},{"lon":21.027212,"lat":42.0700178,"name":"Теодорит","type":"tomb","region":"Skopje Region"},{"lon":21.0282911,"lat":42.0669654,"name":"Кирил Пејчиновиќ-Тетоец","type":"tomb","region":"Skopje Region"},{"lon":21.0285176,"lat":42.0668701,"name":"Загинати Лешочани во војните 1903-2001","type":"monument","region":"Skopje Region"},{"lon":20.798276,"lat":41.1141534,"name":"Нада Филева","type":"memorial","region":"Southwestern Region"},{"lon":21.4185013,"lat":42.0043082,"name":"Dane kraptzew","type":"memorial","region":"Skopje Region"},{"lon":21.4296159,"lat":41.9918182,"name":"Атентат на Киро Глигоров","type":"memorial","region":"Skopje Region"},{"lon":21.6070578,"lat":41.3643261,"name":"Св. Петка","type":"wayside_shrine","region":"Vardar Region"},{"lon":21.3293819,"lat":41.018858,"name":"Ф-86Е","type":"aircraft","region":"Southwestern Region"},{"lon":21.3292773,"lat":41.0186718,"name":"Ф-86Д","type":"aircraft","region":"Southwestern Region"},{"lon":22.4105061,"lat":41.9135927,"name":"Браќата Просветители Св. Кирил и Методиј","type":"monument","region":"Skopje Region"},{"lon":22.410612,"lat":41.9143473,"name":"Љупчо Сантов","type":"monument","region":"Skopje Region"},{"lon":21.4572557,"lat":41.204511,"name":"Братска гробница","type":"tomb","region":"Vardar Region"},{"lon":21.6216919,"lat":41.9755167,"name":"Сухои Су-25УБ","type":"aircraft","region":"Skopje Region"},{"lon":21.6219516,"lat":41.9754577,"name":"Сухои Су-25К","type":"aircraft","region":"Skopje Region"},{"lon":21.6221983,"lat":41.9753556,"name":"Сухои Су-25К","type":"aircraft","region":"Skopje Region"},{"lon":21.6224322,"lat":41.975287,"name":"Сухои Су-25К","type":"aircraft","region":"Skopje Region"},{"lon":21.6200758,"lat":41.4286415,"name":"Игуменија Катерина","type":"tomb","region":"Vardar Region"},{"lon":20.8876605,"lat":41.8781835,"name":"Naim Frasheri","type":"monument","region":"Polog Region"},{"lon":20.8835051,"lat":41.878351,"name":"Naser Ademi","type":"monument","region":"Polog Region"},{"lon":20.883467,"lat":41.8782156,"name":"Deshmoret e Ushtrise Clirimtare Kombetare","type":"monument","region":"Polog Region"},{"lon":22.1778987,"lat":42.0001506,"name":"Јаким Д Стојковски","type":"memorial","region":"Skopje Region"},{"lon":22.5027575,"lat":41.8768098,"name":"Viničko Kale","type":"castle","region":"Eastern Region"},{"lon":20.6778798,"lat":41.1757975,"name":"Нико Нестор-Дживджан","type":"memorial","region":"Southwestern Region"},{"lon":20.6791018,"lat":41.1756353,"name":"Дрини дент","type":"memorial","region":"Southwestern Region"},{"lon":21.3631045,"lat":42.0080767,"name":"99.4-025","type":"locomotive","region":"Skopje Region"},{"lon":21.4618597,"lat":41.9780627,"name":"83-064","type":"locomotive","region":"Skopje Region"},{"lon":21.4328484,"lat":41.9964125,"name":"Споменик „Солунски атентатори и Гемиџии“","type":"memorial","region":"Skopje Region"},{"lon":21.288822,"lat":41.9538189,"name":"Света Троица и Свети Ѓорѓија","type":"ruins","region":"Skopje Region"},{"lon":21.1617392,"lat":41.8117124,"name":"Голема Пеш","type":"archaeological_site","region":"Skopje Region"},{"lon":21.4174425,"lat":42.005709,"name":"Природонаучен Музеј","type":"museum","region":"Skopje Region"},{"lon":21.3001786,"lat":42.0690911,"name":"Манастир Св. Ѓорѓија","type":"place_of_worship","region":"Skopje Region"},{"lon":22.8566138,"lat":41.7077548,"name":"Музеј на град Берово","type":"museum","region":"Eastern Region"},{"lon":22.859018,"lat":41.701039,"name":"Манастир Св. Архангел Михаил","type":"place_of_worship","region":"Eastern Region"},{"lon":22.0163228,"lat":41.4343634,"name":"Музеј Галерија Кавадарци","type":"museum","region":"Vardar Region"},{"lon":20.7961416,"lat":41.112361,"name":"Куќа на Робевци","type":"museum","region":"Southwestern Region"},{"lon":21.4314474,"lat":41.9959035,"name":"Споменик на Александар Македонски","type":"statue","region":"Skopje Region"},{"lon":22.4677492,"lat":41.6350875,"name":"Св.Тројца","type":"place_of_worship","region":"Polog Region"},{"lon":22.5049622,"lat":41.8841902,"name":"Museum Teracotta","type":"museum","region":"Eastern Region"},{"lon":20.7415162,"lat":40.9131005,"name":"Црква Света Петка","type":"place_of_worship","region":"Southwestern Region"},{"lon":21.2991931,"lat":41.9505936,"name":"Манастир Св. Андреј","type":"place_of_worship","region":"Skopje Region"},{"lon":21.3042042,"lat":41.951833,"name":"Св. Никола","type":"place_of_worship","region":"Skopje Region"},{"lon":22.7221034,"lat":41.1871817,"name":"Музеј на Дојран","type":"museum","region":"Eastern Region"},{"lon":21.4349949,"lat":41.9984602,"name":"Филип II Македонски","type":"statue","region":"Skopje Region"},{"lon":21.4254968,"lat":41.9983057,"name":"Св. Климент Охридски","type":"statue","region":"Skopje Region"},{"lon":21.437162,"lat":41.9993163,"name":"Скендербег","type":"statue","region":"Skopje Region"},{"lon":22.2447656,"lat":41.4085959,"name":"Museum of Wine","type":"museum","region":"Vardar Region"},{"lon":21.6864385,"lat":41.8289199,"name":"Manastir Sveta Bogorodica","type":"place_of_worship","region":"Skopje Region"},{"lon":20.8043628,"lat":41.0738678,"name":"Св. Стефан","type":"place_of_worship","region":"Southwestern Region"},{"lon":20.6776078,"lat":41.1805738,"name":"Д-р Никола Незлобински","type":"museum","region":"Southwestern Region"},{"lon":21.6894737,"lat":41.8286581,"name":"Manastir Sveti Jovan","type":"place_of_worship","region":"Skopje Region"},{"lon":22.0181317,"lat":41.4184594,"name":"Спомен куќа на Страшо Пинџур","type":"museum","region":"Vardar Region"},{"lon":22.3348959,"lat":42.2020133,"name":"City Museum","type":"museum","region":"Polog Region"},{"lon":22.5651714,"lat":41.4748537,"name":"Манастир Св. Богородица Елеуса","type":"place_of_worship","region":"Eastern Region"},{"lon":22.5902413,"lat":41.4505759,"name":"Манастир Св. Леонтиј","type":"place_of_worship","region":"Eastern Region"},{"lon":22.7729986,"lat":41.9664768,"name":"Музеј на град Делчево","type":"museum","region":"Eastern Region"},{"lon":21.426153,"lat":41.9952169,"name":"Josip Broz Tito","type":"statue","region":"Skopje Region"},{"lon":22.1831257,"lat":42.0758863,"name":"Св. Јован Крстител","type":"place_of_worship","region":"Skopje Region"},{"lon":21.4339766,"lat":41.9977079,"name":"Св. Кирил и Методиј","type":"statue","region":"Skopje Region"},{"lon":21.4341509,"lat":41.9975624,"name":"Св. Климент Охридски и Наум Охридски Чудотворец","type":"statue","region":"Skopje Region"},{"lon":21.4313414,"lat":41.9953917,"name":"Цар Самоил","type":"statue","region":"Skopje Region"},{"lon":21.4321474,"lat":41.9964949,"name":"Даме Груев","type":"statue","region":"Skopje Region"},{"lon":21.4323054,"lat":41.9968799,"name":"Јустинијан I","type":"statue","region":"Skopje Region"},{"lon":21.4344182,"lat":41.9979046,"name":"Олимпија","type":"statue","region":"Skopje Region"},{"lon":21.3415263,"lat":41.006774,"name":"Св. Троица","type":"place_of_worship","region":"Southwestern Region"},{"lon":20.8227937,"lat":41.0881175,"name":"Свети Тројца Архиереи","type":"place_of_worship","region":"Southwestern Region"},{"lon":21.0506131,"lat":41.0240503,"name":"Eтнолошки музеј","type":"museum","region":"Southwestern Region"},{"lon":21.4323793,"lat":41.9963577,"name":"Гоце Делчев","type":"statue","region":"Skopje Region"},{"lon":20.652723,"lat":41.5939237,"name":"Museum of Galichnik\u0027s cultural heritage","type":"museum","region":"Polog Region"},{"lon":21.4293515,"lat":41.9950349,"name":"Споменик на Христо Узунов","type":"statue","region":"Skopje Region"},{"lon":21.3865879,"lat":41.9989569,"name":"Galerija RA","type":"museum","region":"Skopje Region"},{"lon":22.6364291,"lat":41.4354106,"name":"Museum Strumica","type":"museum","region":"Eastern Region"},{"lon":22.3621503,"lat":42.2089207,"name":"Saint Joachim Osogovski","type":"place_of_worship","region":"Polog Region"},{"lon":22.5220207,"lat":41.1488082,"name":"Vardarski Rid","type":"museum","region":"Eastern Region"},{"lon":20.7970433,"lat":41.1123275,"name":"House of Lambeski","type":"museum","region":"Southwestern Region"}]