[
  {
    "lon": 21.433319,
    "lat": 41.9936737,
    "name": "Питу Гули",
    "type": "monument",
    "full_address": "Питу Гули, 11-ti Oktomvri, 1111 Skopje, North Macedonia",
    "city": "Skopje",
    "state": "Skopje Region"
  },
  {
    "lon": 21.4233737,
    "lat": 42.0032812,
    "name": "Гоце Делчев",
    "type": "monument",
    "full_address": "Гоце Делчев, Naum Naumovski Borče, 1111 Skopje, North Macedonia",
    "city": "Skopje",
    "state": "Skopje Region"
  },
  {
    "lon": 21.4338778,
    "lat": 42.0008716,
    "name": "Влез на Скопското кале",
    "type": "city_gate",
    "full_address": "Skopje Fortress, Samoilova, 1111 Skopje, North Macedonia",
    "city": "Skopje",
    "state": "Skopje Region"
  },
  {
    "lon": 20.960153,
    "lat": 42.0195738,
    "name": "Тетовско Кале",
    "type": "ruins",
    "full_address": "Tetovo Fortress, Vukasin Simovski, 1200 Tetovo, North Macedonia",
    "city": "Tetovo",
    "state": "Polog Region"
  },
  {
    "lon": 22.0228463,
    "lat": 41.4325212,
    "name": "Костурница",
    "type": "monument",
    "full_address": "Kosturnica, Дисанска, 1430 Kavadarci, North Macedonia",
    "city": "Kavadarci",
    "state": "Vardar Region"
  },
  {
    "lon": 20.7914836,
    "lat": 41.1155576,
    "name": "Лихнид",
    "type": "archaeological_site",
    "full_address": "Samuil's Fortress, Кузман Капидан, 6000 Ohrid, North Macedonia",
    "city": "Ohrid",
    "state": "Southwestern Region"
  },
  {
    "lon": 21.257898,
    "lat": 41.3377228,
    "name": "Мечкин Камен",
    "type": "monument",
    "full_address": "Mechkin Kamen, R1306, 7550 Krushevo OT, North Macedonia",
    "city": "",
    "state": "Pelagonia Region"
  },
  {
    "lon": 21.2273776,
    "lat": 41.3880768,
    "name": "Слива",
    "type": "monument",
    "full_address": "unnamed road, Krushevo OT, North Macedonia",
    "city": "",
    "state": "Pelagonia Region"
  },
  {
    "lon": 22.4069917,
    "lat": 41.9188903,
    "name": "Споменик на слободата",
    "type": "monument",
    "full_address": "Monument of Freedom, Kirili i Metodij, 2300 Kochani, North Macedonia",
    "city": "Kochani",
    "state": "Eastern Region"
  },
  {
    "lon": 22.3507979,
    "lat": 42.2916094,
    "name": "WWII Battle - 17th Macedonian Brigade ws Bulgarian army",
    "type": "monument",
    "full_address": "WWII Battle - 17th Macedonian Brigade ws Bulgarian army, R2250, Dobrovnica, North Macedonia",
    "city": "",
    "state": "Northeastern Region"
  },
  {
    "lon": 20.679835,
    "lat": 41.1776616,
    "name": "Споменик на Револуцијата",
    "type": "monument",
    "full_address": "Monument of the Revolution, Marshal Tito, 6330 Struga, North Macedonia",
    "city": "",
    "state": "Southwestern Region"
  },
  {
    "lon": 21.4314474,
    "lat": 41.9959035,
    "name": "Споменик на Александар Македонски",
    "type": "monument",
    "full_address": "Statue of Alexander the Great, Macedonia Square, 1111 Skopje, North Macedonia",
    "city": "Skopje",
    "state": "Skopje Region"
  },
  {
    "lon": 22.9650942,
    "lat": 41.363211,
    "name": "5",
    "type": "boundary_stone",
    "full_address": "R1402, Staro Konjarevo, North Macedonia",
    "city": "",
    "state": "Southeastern Region"
  },
  {
    "lon": 20.5620379,
    "lat": 41.6346281,
    "name": "Lukov",
    "type": "memorial",
    "full_address": "Lukov, R1202, 1254 Boletin, North Macedonia",
    "city": "",
    "state": "Polog Region"
  },
  {
    "lon": 21.3527926,
    "lat": 42.0586697,
    "name": "Rimska crkva",
    "type": "archaeological_site",
    "full_address": "Rimska crkva, Mother Teresa, 1060 Orman, North Macedonia",
    "city": "",
    "state": "Skopje Region"
  },
  {
    "lon": 21.3548716,
    "lat": 42.0843452,
    "name": "Давина Кула",
    "type": "archaeological_site",
    "full_address": "Davina Kula, A4, Gluvo, North Macedonia",
    "city": "",
    "state": "Skopje Region"
  },
  {
    "lon": 21.2786993,
    "lat": 42.0587494,
    "name": "Голема Кула - Кучково",
    "type": "archaeological_site",
    "full_address": "Голема Кула - Кучково, Street 1, 1060 Gorno Svilare, North Macedonia",
    "city": "",
    "state": "Skopje Region"
  },
  {
    "lon": 21.2844339,
    "lat": 42.0585741,
    "name": "Мала Кула - Кучково",
    "type": "archaeological_site",
    "full_address": "Мала Кула - Кучково, Улица 103, Kuchkovo, North Macedonia",
    "city": "",
    "state": "Skopje Region"
  },
  {
    "lon": 22.9655541,
    "lat": 41.3534717,
    "name": "4",
    "type": "boundary_stone",
    "full_address": "R1402, Staro Konjarevo, North Macedonia",
    "city": "",
    "state": "Southeastern Region"
  },
  {
    "lon": 22.964952,
    "lat": 41.3649798,
    "name": "6",
    "type": "boundary_stone",
    "full_address": "Мир, Gabrene 2898, Bulgaria",
    "city": "",
    "state": "Unknown"
  },
  {
    "lon": 22.9645721,
    "lat": 41.3667003,
    "name": "7",
    "type": "boundary_stone",
    "full_address": "Мир, Gabrene 2898, Bulgaria",
    "city": "",
    "state": "Unknown"
  },
  {
    "lon": 22.9643552,
    "lat": 41.3682443,
    "name": "8",
    "type": "boundary_stone",
    "full_address": "Мир, Gabrene 2898, Bulgaria",
    "city": "",
    "state": "Unknown"
  },
  {
    "lon": 22.9640182,
    "lat": 41.3692174,
    "name": "9",
    "type": "boundary_stone",
    "full_address": "Мир, Gabrene 2898, Bulgaria",
    "city": "",
    "state": "Unknown"
  },
  {
    "lon": 22.9637614,
    "lat": 41.3704535,
    "name": "10",
    "type": "boundary_stone",
    "full_address": "Мир, Gabrene 2898, Bulgaria",
    "city": "",
    "state": "Unknown"
  },
  {
    "lon": 22.963565,
    "lat": 41.371345,
    "name": "11",
    "type": "boundary_stone",
    "full_address": "Кокиче, Gabrene 2898, Bulgaria",
    "city": "",
    "state": "Unknown"
  },
  {
    "lon": 22.9631755,
    "lat": 41.3721284,
    "name": "12",
    "type": "boundary_stone",
    "full_address": "Кокиче, Gabrene 2898, Bulgaria",
    "city": "",
    "state": "Unknown"
  },
  {
    "lon": 22.9630541,
    "lat": 41.3728977,
    "name": "13",
    "type": "boundary_stone",
    "full_address": "Кокиче, Gabrene 2898, Bulgaria",
    "city": "",
    "state": "Unknown"
  },
  {
    "lon": 22.9628253,
    "lat": 41.3739433,
    "name": "14",
    "type": "boundary_stone",
    "full_address": "Кокиче, Gabrene 2898, Bulgaria",
    "city": "",
    "state": "Unknown"
  },
  {
    "lon": 22.9632889,
    "lat": 41.3755256,
    "name": "15",
    "type": "boundary_stone",
    "full_address": "Кокиче, Gabrene 2898, Bulgaria",
    "city": "",
    "state": "Unknown"
  },
  {
    "lon": 22.9621967,
    "lat": 41.3786524,
    "name": "16",
    "type": "boundary_stone",
    "full_address": "Кокиче, Gabrene 2898, Bulgaria",
    "city": "",
    "state": "Unknown"
  },
  {
    "lon": 22.9628726,
    "lat": 41.3839589,
    "name": "19",
    "type": "boundary_stone",
    "full_address": "198, 2898, Bulgaria",
    "city": "",
    "state": "Unknown"
  },
  {
    "lon": 22.9631941,
    "lat": 41.3859009,
    "name": "20",
    "type": "boundary_stone",
    "full_address": "198, 2898, Bulgaria",
    "city": "",
    "state": "Unknown"
  },
  {
    "lon": 22.9642834,
    "lat": 41.3891975,
    "name": "21",
    "type": "boundary_stone",
    "full_address": "198, 2898, Bulgaria",
    "city": "",
    "state": "Unknown"
  },
  {
    "lon": 22.9667134,
    "lat": 41.3931081,
    "name": "22",
    "type": "boundary_stone",
    "full_address": "198, 2898, Bulgaria",
    "city": "",
    "state": "Unknown"
  },
  {
    "lon": 22.966126,
    "lat": 41.3964028,
    "name": "25",
    "type": "boundary_stone",
    "full_address": "198, 2898, Bulgaria",
    "city": "",
    "state": "Unknown"
  },
  {
    "lon": 22.9615881,
    "lat": 41.4070803,
    "name": "27",
    "type": "boundary_stone",
    "full_address": "198, 2898, Bulgaria",
    "city": "",
    "state": "Unknown"
  },
  {
    "lon": 22.9520216,
    "lat": 41.4174975,
    "name": "28",
    "type": "boundary_stone",
    "full_address": "198, 2898, Bulgaria",
    "city": "",
    "state": "Unknown"
  },
  {
    "lon": 22.9746504,
    "lat": 41.4400834,
    "name": "30",
    "type": "boundary_stone",
    "full_address": "198, Parvomai 2890, Bulgaria",
    "city": "",
    "state": "Unknown"
  },
  {
    "lon": 22.5899869,
    "lat": 42.1102442,
    "name": "Куцолиница / 86",
    "type": "boundary_stone",
    "full_address": "R1210, Sasa, North Macedonia",
    "city": "",
    "state": "Eastern Region"
  },
  {
    "lon": 22.5770819,
    "lat": 42.1119645,
    "name": "87",
    "type": "boundary_stone",
    "full_address": "R1210, Sasa, North Macedonia",
    "city": "",
    "state": "Eastern Region"
  },
  {
    "lon": 22.5104573,
    "lat": 42.1551091,
    "name": "90",
    "type": "boundary_stone",
    "full_address": "Пониква - Царев Врв - Руен - Рудник Саса, Sasa, North Macedonia",
    "city": "",
    "state": "Eastern Region"
  },
  {
    "lon": 22.3705411,
    "lat": 42.3089612,
    "name": "Китка",
    "type": "boundary_stone",
    "full_address": "Пат за Трновски Ветер, Trnovo, North Macedonia",
    "city": "",
    "state": "Northeastern Region"
  },
  {
    "lon": 22.5162744,
    "lat": 42.1580093,
    "name": "Руен",
    "type": "boundary_stone",
    "full_address": "Пониква - Царев Врв - Руен - Рудник Саса, Sasa, North Macedonia",
    "city": "",
    "state": "Eastern Region"
  },
  {
    "lon": 21.7200501,
    "lat": 42.1355189,
    "name": "Zena",
    "type": "monument",
    "full_address": "Zena, Иво Лола Рибар, 1300 Kumanovo, North Macedonia",
    "city": "Kumanovo",
    "state": "Northeastern Region"
  },
  {
    "lon": 21.398848,
    "lat": 42.0766913,
    "name": "Gradiste kaj s.Brazda",
    "type": "archaeological_site",
    "full_address": "Gradiste kaj s.Brazda, R2239, Brazda, North Macedonia",
    "city": "",
    "state": "Skopje Region"
  },
  {
    "lon": 21.2991931,
    "lat": 41.9505936,
    "name": "Манастир Св. Андреј",
    "type": "monument",
    "full_address": "Monastery St. Andrej, Přehrada Matka - hráz, Matka, North Macedonia",
    "city": "",
    "state": "Skopje Region"
  },
  {
    "lon": 21.4617772,
    "lat": 42.0017233,
    "name": "Филип Втори",
    "type": "monument",
    "full_address": "Филип Втори, Плоштад Автокоманда, 1001 Skopje, North Macedonia",
    "city": "Skopje",
    "state": "Skopje Region"
  },
  {
    "lon": 21.4349949,
    "lat": 41.9984602,
    "name": "Филип II Македонски",
    "type": "memorial",
    "full_address": "Karpoš Uprising Square, 1111 Skopje, North Macedonia",
    "city": "Skopje",
    "state": "Skopje Region"
  },
  {
    "lon": 21.4254968,
    "lat": 41.9983057,
    "name": "Св. Климент Охридски",
    "type": "memorial",
    "full_address": "Bulevar Sveti Kliment Ohridski, 1111 Skopje, North Macedonia",
    "city": "Skopje",
    "state": "Skopje Region"
  },
  {
    "lon": 21.437162,
    "lat": 41.9993163,
    "name": "Скендербег",
    "type": "memorial",
    "full_address": "Skanderbeg Square, 1111 Skopje, North Macedonia",
    "city": "Skopje",
    "state": "Skopje Region"
  },
  {
    "lon": 21.1195933,
    "lat": 40.8570205,
    "name": "Маркова Нога",
    "type": "monument",
    "full_address": "Маркова Нога, R1308, Dolno Dupeni, North Macedonia",
    "city": "",
    "state": "Pelagonia Region"
  },
  {
    "lon": 21.809838,
    "lat": 42.1706665,
    "name": "Костоперска Карпа",
    "type": "archaeological_site",
    "full_address": "Костоперска Карпа, A2, Mlado Nagorichane, North Macedonia",
    "city": "",
    "state": "Northeastern Region"
  },
  {
    "lon": 21.953118,
    "lat": 42.2633818,
    "name": "Кокино",
    "type": "archaeological_site",
    "full_address": "Кокино, R2244, Kokino, North Macedonia",
    "city": "",
    "state": "Northeastern Region"
  },
  {
    "lon": 22.9351752,
    "lat": 41.340338,
    "name": "2",
    "type": "boundary_stone",
    "full_address": "R1402, Staro Konjarevo, North Macedonia",
    "city": "",
    "state": "Southeastern Region"
  },
  {
    "lon": 22.9527929,
    "lat": 41.3524982,
    "name": "3",
    "type": "boundary_stone",
    "full_address": "R1402, Staro Konjarevo, North Macedonia",
    "city": "",
    "state": "Southeastern Region"
  },
  {
    "lon": 21.7194275,
    "lat": 42.1355778,
    "name": "Јосип Броз - Тито",
    "type": "monument",
    "full_address": "Јосип Броз - Тито, Иво Лола Рибар, 1300 Kumanovo, North Macedonia",
    "city": "Kumanovo",
    "state": "Northeastern Region"
  },
  {
    "lon": 22.2541295,
    "lat": 41.4094203,
    "name": "Марков Град",
    "type": "ruins",
    "full_address": "Markov Grad, Friendship, 1442 Koreshnica, North Macedonia",
    "city": "",
    "state": "Vardar Region"
  },
  {
    "lon": 21.8500367,
    "lat": 42.2782511,
    "name": "Меморијален центар АСНОМ",
    "type": "memorial",
    "full_address": "Memorial Center ASNOM, R1207, Pelince, North Macedonia",
    "city": "",
    "state": "Northeastern Region"
  },
  {
    "lon": 20.9108574,
    "lat": 41.794932,
    "name": "Sahat Kula",
    "type": "monument",
    "full_address": "Sahat Kula, Nikola Parapunov, 1230 Gostivar, North Macedonia",
    "city": "Gostivar",
    "state": "Polog Region"
  },
  {
    "lon": 21.1545235,
    "lat": 42.1068795,
    "name": "Орашко Кале",
    "type": "ruins",
    "full_address": "Orashko Kale, R2234, Nerashte, North Macedonia",
    "city": "",
    "state": "Polog Region"
  },
  {
    "lon": 20.9702432,
    "lat": 41.5119269,
    "name": "Саат кула",
    "type": "monument",
    "full_address": "Саат кула, Јане Сандански, 6250 Kichevo, North Macedonia",
    "city": "Kichevo",
    "state": "Southwestern Region"
  },
  {
    "lon": 21.7840512,
    "lat": 41.7140782,
    "name": "Саат кула",
    "type": "monument",
    "full_address": "Саат кула, 8-ми Септември, 1400 Veles, North Macedonia",
    "city": "Veles",
    "state": "Vardar Region"
  },
  {
    "lon": 22.4937679,
    "lat": 41.2775784,
    "name": "Isar / Idomenae",
    "type": "archaeological_site",
    "full_address": "Isar / Idomenae, R1401, 2463 Marvinci, North Macedonia",
    "city": "",
    "state": "Southeastern Region"
  },
  {
    "lon": 21.7192303,
    "lat": 42.1346962,
    "name": "Куде сат",
    "type": "monument",
    "full_address": "Куде сат, Гане георгиев, 1300 Kumanovo, North Macedonia",
    "city": "Kumanovo",
    "state": "Northeastern Region"
  },
  {
    "lon": 21.7629669,
    "lat": 41.4293251,
    "name": "Ножот",
    "type": "memorial",
    "full_address": "Ножот, R1101, Rakle, North Macedonia",
    "city": "",
    "state": "Pelagonia Region"
  },
  {
    "lon": 21.5519842,
    "lat": 41.3451182,
    "name": "Народен Херој Кузман Јосифоски-Питу",
    "type": "monument",
    "full_address": "People's hero Kuzman Josifoski-Pitu, Metodija Andonov - Chento, 7500 Prilep, North Macedonia",
    "city": "Prilep",
    "state": "Pelagonia Region"
  },
  {
    "lon": 21.554267,
    "lat": 41.3451518,
    "name": "Пеце Атанасоски",
    "type": "monument",
    "full_address": "Пеце Атанасоски, Borka Taleski-Modernoto, 7500 Prilep, North Macedonia",
    "city": "Prilep",
    "state": "Pelagonia Region"
  },
  {
    "lon": 21.5522173,
    "lat": 41.3452617,
    "name": "Ѓорче Петров",
    "type": "monument",
    "full_address": "Gjorche Petrov, Metodija Andonov - Chento, 7500 Prilep, North Macedonia",
    "city": "Prilep",
    "state": "Pelagonia Region"
  },
  {
    "lon": 21.2480535,
    "lat": 41.3748344,
    "name": "Питу Гули",
    "type": "tomb",
    "full_address": "Питу Гули, Гумење, 7550 Krushevo, North Macedonia",
    "city": "",
    "state": "Pelagonia Region"
  },
  {
    "lon": 21.2482546,
    "lat": 41.3748686,
    "name": "Тоше Проески",
    "type": "tomb",
    "full_address": "Тоше Проески, Гумење, 7550 Krushevo, North Macedonia",
    "city": "",
    "state": "Pelagonia Region"
  },
  {
    "lon": 21.2463296,
    "lat": 41.3736665,
    "name": "Никола Карев",
    "type": "monument",
    "full_address": "Никола Карев, Nikola Karev, 7550 Krushevo OT, North Macedonia",
    "city": "",
    "state": "Pelagonia Region"
  },
  {
    "lon": 22.9625526,
    "lat": 41.3818263,
    "name": "18",
    "type": "boundary_stone",
    "full_address": "Кокиче, Gabrene 2898, Bulgaria",
    "city": "",
    "state": "Unknown"
  },
  {
    "lon": 22.965619,
    "lat": 41.3969922,
    "name": "26",
    "type": "boundary_stone",
    "full_address": "198, 2898, Bulgaria",
    "city": "",
    "state": "Unknown"
  },
  {
    "lon": 22.9762168,
    "lat": 41.4533981,
    "name": "31",
    "type": "boundary_stone",
    "full_address": "2885, Bulgaria",
    "city": "",
    "state": "Unknown"
  },
  {
    "lon": 22.9662076,
    "lat": 41.4723462,
    "name": "32",
    "type": "boundary_stone",
    "full_address": "2885, Bulgaria",
    "city": "",
    "state": "Unknown"
  },
  {
    "lon": 22.9585216,
    "lat": 41.4930169,
    "name": "34",
    "type": "boundary_stone",
    "full_address": "NS-01, Badolen, North Macedonia",
    "city": "",
    "state": "Southeastern Region"
  },
  {
    "lon": 22.9605185,
    "lat": 41.5295396,
    "name": "35",
    "type": "boundary_stone",
    "full_address": "Dvorishte, Eastern Region, North Macedonia",
    "city": "",
    "state": "Eastern Region"
  },
  {
    "lon": 22.9604199,
    "lat": 41.5423737,
    "name": "36",
    "type": "boundary_stone",
    "full_address": "Dvorishte, Eastern Region, North Macedonia",
    "city": "",
    "state": "Eastern Region"
  },
  {
    "lon": 21.3368929,
    "lat": 41.024615,
    "name": "Стефан Наумов-Стив",
    "type": "memorial",
    "full_address": "Stefan Naumov-Stiv, Makedonska Falanga, 7000 Bitola, North Macedonia",
    "city": "Bitola",
    "state": "Pelagonia Region"
  },
  {
    "lon": 21.2497316,
    "lat": 41.3649692,
    "name": "Споменик на Питу Гули",
    "type": "monument",
    "full_address": "Statue of Pitu Guli, Коча Миленку, 7550 Krushevo, North Macedonia",
    "city": "",
    "state": "Pelagonia Region"
  },
  {
    "lon": 21.2484409,
    "lat": 41.3653856,
    "name": "Наум Наумоски-Борче",
    "type": "monument",
    "full_address": "Naum Naumoski-Borche, Kocha Milenku, 7550 Krushevo, North Macedonia",
    "city": "",
    "state": "Pelagonia Region"
  },
  {
    "lon": 21.9751675,
    "lat": 41.5516379,
    "name": "Римски театар",
    "type": "ruins",
    "full_address": "Roman theater, Friendship, 1422 Gradsko, North Macedonia",
    "city": "",
    "state": "Vardar Region"
  },
  {
    "lon": 20.951411,
    "lat": 41.5126479,
    "name": "99.4-053",
    "type": "locomotive",
    "full_address": "99.4-053, Boulevard Osloboduvanje, 6250 Kichevo, North Macedonia",
    "city": "Kichevo",
    "state": "Southwestern Region"
  },
  {
    "lon": 22.5001795,
    "lat": 41.1458586,
    "name": "Два Коња",
    "type": "monument",
    "full_address": "Два Коња, Булевар Гевгелија, 1480 Gevgelija, North Macedonia",
    "city": "Gevgelija",
    "state": "Southeastern Region"
  },
  {
    "lon": 21.9862589,
    "lat": 42.0836218,
    "name": "Цоцев Камен",
    "type": "archaeological_site",
    "full_address": "Cocev Kamen, R29277, Shopsko Rudare, North Macedonia",
    "city": "",
    "state": "Northeastern Region"
  },
  {
    "lon": 20.9119981,
    "lat": 40.9765203,
    "name": "Преспанско Советување",
    "type": "monument",
    "full_address": "Преспанско Советување, R1307, Oteshevo, North Macedonia",
    "city": "",
    "state": "Pelagonia Region"
  },
  {
    "lon": 21.5564074,
    "lat": 41.3475544,
    "name": "Карпалак",
    "type": "monument",
    "full_address": "Карпалак, Gjorgji Delchev-Goce, 7500 Prilep, North Macedonia",
    "city": "Prilep",
    "state": "Pelagonia Region"
  },
  {
    "lon": 21.7853235,
    "lat": 42.1491368,
    "name": "Zebrnjak",
    "type": "memorial",
    "full_address": "Zebrnjak, R2237, 1300 Mlado Nagorichane, North Macedonia",
    "city": "",
    "state": "Northeastern Region"
  },
  {
    "lon": 20.7995376,
    "lat": 41.1126936,
    "name": "Свети Климент Охридски",
    "type": "monument",
    "full_address": "Monument St. Clement Ohridski, Македонски просветители, 6000 Ohrid, North Macedonia",
    "city": "Ohrid",
    "state": "Southwestern Region"
  },
  {
    "lon": 20.799994,
    "lat": 41.1120476,
    "name": "Свети Кирил и Методиј",
    "type": "monument",
    "full_address": "Monuments of Saints Cyril and Methodius, Македонски просветители, 6000 Ohrid, North Macedonia",
    "city": "Ohrid",
    "state": "Southwestern Region"
  },
  {
    "lon": 20.7990226,
    "lat": 41.1122955,
    "name": "Свети Наум Охридски Чудотворец",
    "type": "monument",
    "full_address": "Monument to St. Naum of Ohrid, Tsar Samoil, 6000 Ohrid, North Macedonia",
    "city": "Ohrid",
    "state": "Southwestern Region"
  },
  {
    "lon": 20.7977703,
    "lat": 41.1124606,
    "name": "Долна Порта",
    "type": "city_gate",
    "full_address": "Lower Gate, Car Samoil, 6000 Ohrid, North Macedonia",
    "city": "Ohrid",
    "state": "Southwestern Region"
  },
  {
    "lon": 21.9627449,
    "lat": 42.0853984,
    "name": "Мачка камен",
    "type": "archaeological_site",
    "full_address": "Macka kamen, R29277, Konjuh, North Macedonia",
    "city": "",
    "state": "Northeastern Region"
  },
  {
    "lon": 21.0770931,
    "lat": 41.4182291,
    "name": "Христо Узунов",
    "type": "monument",
    "full_address": "Христо Узунов, R.I.P. Христо Узунов, Cer, North Macedonia",
    "city": "",
    "state": "Southwestern Region"
  },
  {
    "lon": 20.8135106,
    "lat": 41.0596796,
    "name": "Sv. Nikola",
    "type": "wayside_shrine",
    "full_address": "Rača - Konjsko, 6000 Konjsko, North Macedonia",
    "city": "",
    "state": "Southwestern Region"
  },
  {
    "lon": 20.9636151,
    "lat": 41.9062629,
    "name": "Споменик на жртви од НОВ",
    "type": "monument",
    "full_address": "Споменик на жртви од НОВ, 102, 1213 Radiovce, North Macedonia",
    "city": "",
    "state": "Polog Region"
  },
  {
    "lon": 21.5524989,
    "lat": 41.3460556,
    "name": "Александар Македонски",
    "type": "monument",
    "full_address": "Александар Македонски, Alexandria Square, 7500 Prilep, North Macedonia",
    "city": "Prilep",
    "state": "Pelagonia Region"
  },
  {
    "lon": 21.5528281,
    "lat": 41.3462544,
    "name": "Методија Андонов-Ченто",
    "type": "monument",
    "full_address": "Методија Андонов-Ченто, Alexandria Square, 7500 Prilep, North Macedonia",
    "city": "Prilep",
    "state": "Pelagonia Region"
  },
  {
    "lon": 21.553243,
    "lat": 41.3462194,
    "name": "Св. Никола",
    "type": "monument",
    "full_address": "Св. Никола, Alexandria Square, 7500 Prilep, North Macedonia",
    "city": "Prilep",
    "state": "Pelagonia Region"
  },
  {
    "lon": 21.7360635,
    "lat": 41.822914,
    "name": "Масакр кај Пуста Кула",
    "type": "memorial",
    "full_address": "Масакр кај Пуста Кула, 10113, Rudnik, North Macedonia",
    "city": "",
    "state": "Vardar Region"
  },
  {
    "lon": 21.5479723,
    "lat": 41.3434323,
    "name": "Карпалак 2001",
    "type": "monument",
    "full_address": "Карпалак 2001, Gjorgji Delchev-Goce, 7500 Prilep, North Macedonia",
    "city": "Prilep",
    "state": "Pelagonia Region"
  },
  {
    "lon": 21.554646,
    "lat": 41.3341123,
    "name": "Крипта",
    "type": "monument",
    "full_address": "Cript, Car Samoil ББ, 7500 Prilep, North Macedonia",
    "city": "Prilep",
    "state": "Pelagonia Region"
  },
  {
    "lon": 21.5548417,
    "lat": 41.345456,
    "name": "Итар Пејо",
    "type": "monument",
    "full_address": "Sly Peter, 7500 Prilep, North Macedonia",
    "city": "Prilep",
    "state": "Pelagonia Region"
  },
  {
    "lon": 22.8187714,
    "lat": 41.975162,
    "name": "Dedo Jakim - Mill",
    "type": "monument",
    "full_address": "Dedo Jakim - Mill, A3, 2320 Dzvegor, North Macedonia",
    "city": "",
    "state": "Eastern Region"
  },
  {
    "lon": 22.8193451,
    "lat": 41.9769054,
    "name": "Ilin Kamen",
    "type": "monument",
    "full_address": "Ilin Kamen, A3, 2320 Dzvegor, North Macedonia",
    "city": "",
    "state": "Eastern Region"
  },
  {
    "lon": 22.7768724,
    "lat": 41.9668611,
    "name": "Гоце Делчев (Биста)",
    "type": "monument",
    "full_address": "Goce Delchev, Crosswalk, 2320 Delchevo, North Macedonia",
    "city": "",
    "state": "Eastern Region"
  },
  {
    "lon": 22.7742882,
    "lat": 41.9643843,
    "name": "Гоце Делчев",
    "type": "monument",
    "full_address": "Goce Delchev, Kej na Slobodata, 2320 Delchevo, North Macedonia",
    "city": "",
    "state": "Eastern Region"
  },
  {
    "lon": 22.7716387,
    "lat": 41.9653801,
    "name": "Споменик на паднати борци во НОБ",
    "type": "monument",
    "full_address": "Споменик на паднати борци во НОБ, Marshal Tito, 2320 Delchevo, North Macedonia",
    "city": "",
    "state": "Eastern Region"
  },
  {
    "lon": 22.7954411,
    "lat": 41.9425359,
    "name": "Кула",
    "type": "monument",
    "full_address": "Kula, R1302, 2320 Star Istevnik, North Macedonia",
    "city": "",
    "state": "Eastern Region"
  },
  {
    "lon": 21.426153,
    "lat": 41.9952169,
    "name": "Josip Broz Tito",
    "type": "memorial",
    "full_address": "Dimitrie Čupovski, 1000 Skopje, North Macedonia",
    "city": "Skopje",
    "state": "Skopje Region"
  },
  {
    "lon": 21.4313461,
    "lat": 41.9682709,
    "name": "Маркови Кули",
    "type": "ruins",
    "full_address": "Markovi Kuli, R2138, 1054 Skopje, North Macedonia",
    "city": "Skopje",
    "state": "Skopje Region"
  },
  {
    "lon": 22.5093733,
    "lat": 41.139367,
    "name": "Леонид Јанков",
    "type": "monument",
    "full_address": "Леонид Јанков, Илинденска, 1480 Gevgelija, North Macedonia",
    "city": "Gevgelija",
    "state": "Southeastern Region"
  },
  {
    "lon": 21.1211491,
    "lat": 40.8536596,
    "name": "Г177",
    "type": "boundary_stone",
    "full_address": "Prespes Municipal Unit, Florina Regional Unit, Greece",
    "city": "Prespes Municipal Unit",
    "state": "Epirus and Western Macedonia"
  },
  {
    "lon": 21.1255774,
    "lat": 40.8545802,
    "name": "Г176",
    "type": "boundary_stone",
    "full_address": "R1308, Dolno Dupeni, North Macedonia",
    "city": "",
    "state": "Pelagonia Region"
  },
  {
    "lon": 21.1306578,
    "lat": 40.8554344,
    "name": "Г175-2",
    "type": "boundary_stone",
    "full_address": "R1308, Dolno Dupeni, North Macedonia",
    "city": "",
    "state": "Pelagonia Region"
  },
  {
    "lon": 21.1326005,
    "lat": 40.854785,
    "name": "Г175-1",
    "type": "boundary_stone",
    "full_address": "R1308, Dolno Dupeni, North Macedonia",
    "city": "",
    "state": "Pelagonia Region"
  },
  {
    "lon": 21.4339766,
    "lat": 41.9977079,
    "name": "Св. Кирил и Методиј",
    "type": "memorial",
    "full_address": "Karpoš Uprising Square, 1111 Skopje, North Macedonia",
    "city": "Skopje",
    "state": "Skopje Region"
  },
  {
    "lon": 21.4341509,
    "lat": 41.9975624,
    "name": "Св. Климент Охридски и Наум Охридски Чудотворец",
    "type": "memorial",
    "full_address": "Karpoš Uprising Square, 1111 Skopje, North Macedonia",
    "city": "Skopje",
    "state": "Skopje Region"
  },
  {
    "lon": 21.4313414,
    "lat": 41.9953917,
    "name": "Цар Самоил",
    "type": "memorial",
    "full_address": "Macedonia Square, 1000 Skopje, North Macedonia",
    "city": "Skopje",
    "state": "Skopje Region"
  },
  {
    "lon": 21.4321474,
    "lat": 41.9964949,
    "name": "Даме Груев",
    "type": "memorial",
    "full_address": "Macedonia Square, 1111 Skopje, North Macedonia",
    "city": "Skopje",
    "state": "Skopje Region"
  },
  {
    "lon": 21.4323054,
    "lat": 41.9968799,
    "name": "Јустинијан I",
    "type": "memorial",
    "full_address": "Justinian I, Macedonia Square, 1111 Skopje, North Macedonia",
    "city": "Skopje",
    "state": "Skopje Region"
  },
  {
    "lon": 21.4344182,
    "lat": 41.9979046,
    "name": "Олимпија",
    "type": "memorial",
    "full_address": "Фонтана „Олимпија - Мајка на Александар III Македонски“, Karpoš Uprising Square, 1111 Skopje, North Macedonia",
    "city": "Skopje",
    "state": "Skopje Region"
  },
  {
    "lon": 21.4337226,
    "lat": 41.993303,
    "name": "Прометеј",
    "type": "monument",
    "full_address": "Prometheus, 11-ti Oktomvri, 1111 Skopje, North Macedonia",
    "city": "Skopje",
    "state": "Skopje Region"
  },
  {
    "lon": 21.439106,
    "lat": 41.9834333,
    "name": "Тодор Александров",
    "type": "monument",
    "full_address": "Тодор Александров, Ivan Kozarov, 1111 Skopje, North Macedonia",
    "city": "Skopje",
    "state": "Skopje Region"
  },
  {
    "lon": 21.4369668,
    "lat": 41.986749,
    "name": "Стара Рампа",
    "type": "monument",
    "full_address": "Стара Рампа, Булевар Македонија, 1111 Skopje, North Macedonia",
    "city": "Skopje",
    "state": "Skopje Region"
  },
  {
    "lon": 21.4317487,
    "lat": 41.9936684,
    "name": "Бегова кула",
    "type": "monument",
    "full_address": "Bey's Tower, Dimitrie Čupovski, 1111 Skopje, North Macedonia",
    "city": "Skopje",
    "state": "Skopje Region"
  },
  {
    "lon": 22.7549207,
    "lat": 41.4166941,
    "name": "Гоце Делчев",
    "type": "monument",
    "full_address": "Гоце Делчев, yes, Monospitovo, North Macedonia",
    "city": "",
    "state": "Southeastern Region"
  },
  {
    "lon": 21.6749495,
    "lat": 41.3661079,
    "name": "Борка Талески-Модерното / Лазо Филиповски-Лавски",
    "type": "memorial",
    "full_address": "Borka Taleski / Lazo Filipovski, R1101, Pletvar, North Macedonia",
    "city": "",
    "state": "Pelagonia Region"
  },
  {
    "lon": 20.7412554,
    "lat": 40.9142149,
    "name": "Свети Наум",
    "type": "memorial",
    "full_address": "Свети Наум, R1301, Lubanishta, North Macedonia",
    "city": "",
    "state": "Southwestern Region"
  },
  {
    "lon": 22.1903758,
    "lat": 41.736405,
    "name": "Споменик на загинатите евреи",
    "type": "monument",
    "full_address": "Споменик на загинатите евреи, Marshal Tito St., 2000 Shtip, North Macedonia",
    "city": "Shtip",
    "state": "Eastern Region"
  },
  {
    "lon": 21.4375046,
    "lat": 42.000853,
    "name": "Мустафа-пашина џамија",
    "type": "monument",
    "full_address": "Murat Pasha Mosque, Bitpazarska, 1009 Skopje, North Macedonia",
    "city": "Skopje",
    "state": "Skopje Region"
  },
  {
    "lon": 21.4333848,
    "lat": 41.9130467,
    "name": "Vila Varvarka",
    "type": "castle",
    "full_address": "Vila Varvarka, R1106, 1050 Rakotinci, North Macedonia",
    "city": "",
    "state": "Skopje Region"
  },
  {
    "lon": 21.4108745,
    "lat": 41.9949279,
    "name": "Споменик на Јуриј Гагарин",
    "type": "monument",
    "full_address": "Yuri Gagarin Monument, Jurij Gagarin, 1020 Skopje, North Macedonia",
    "city": "Skopje",
    "state": "Skopje Region"
  },
  {
    "lon": 21.4332009,
    "lat": 41.9930188,
    "name": "Никола Карев",
    "type": "monument",
    "full_address": "Никола Карев, 11-ti Oktomvri, 1111 Skopje, North Macedonia",
    "city": "Skopje",
    "state": "Skopje Region"
  },
  {
    "lon": 21.4283664,
    "lat": 42.0016804,
    "name": "Вера Јоциќ",
    "type": "monument",
    "full_address": "Vera Jocik, Jordan Hadžikonstantinov Džinot, 1111 Skopje, North Macedonia",
    "city": "Skopje",
    "state": "Skopje Region"
  },
  {
    "lon": 21.5532375,
    "lat": 41.3455416,
    "name": "Марко Мрњавчевиќ",
    "type": "monument",
    "full_address": "Marko Mrnjavchevikj, Metodija Andonov - Chento, 7500 Prilep, North Macedonia",
    "city": "Prilep",
    "state": "Pelagonia Region"
  },
  {
    "lon": 21.5505634,
    "lat": 41.3450704,
    "name": "Круме Кепески",
    "type": "monument",
    "full_address": "Круме Кепески, Art Square, 7500 Prilep, North Macedonia",
    "city": "Prilep",
    "state": "Pelagonia Region"
  },
  {
    "lon": 21.5506707,
    "lat": 41.3451329,
    "name": "Блаже Конески",
    "type": "monument",
    "full_address": "Блаже Конески, Art Square, 7500 Prilep, North Macedonia",
    "city": "Prilep",
    "state": "Pelagonia Region"
  },
  {
    "lon": 21.5505581,
    "lat": 41.3451792,
    "name": "Марко Цепенков",
    "type": "monument",
    "full_address": "Марко Цепенков, Art Square, 7500 Prilep, North Macedonia",
    "city": "Prilep",
    "state": "Pelagonia Region"
  },
  {
    "lon": 20.9663459,
    "lat": 41.5130946,
    "name": "Китино Кале",
    "type": "castle",
    "full_address": "Kita Castle, Амит Челопечанец, 6250 Kichevo, North Macedonia",
    "city": "Kichevo",
    "state": "Southwestern Region"
  },
  {
    "lon": 22.3602199,
    "lat": 42.3110963,
    "name": "Шуплив Камен",
    "type": "boundary_stone",
    "full_address": "R2250, Golema Crcorija, North Macedonia",
    "city": "",
    "state": "Northeastern Region"
  },
  {
    "lon": 22.9282524,
    "lat": 41.3413087,
    "name": "1a",
    "type": "boundary_stone",
    "full_address": "R1402, Staro Konjarevo, North Macedonia",
    "city": "",
    "state": "Southeastern Region"
  },
  {
    "lon": 20.7836677,
    "lat": 41.2788101,
    "name": "Ботун",
    "type": "memorial",
    "full_address": "Ботун, A2, Botun, North Macedonia",
    "city": "",
    "state": "Southwestern Region"
  },
  {
    "lon": 22.5006786,
    "lat": 41.158263,
    "name": "Споменик на слободата",
    "type": "monument",
    "full_address": "Monument of freedom, R1102, 1480 Mrzenci, North Macedonia",
    "city": "",
    "state": "Southeastern Region"
  },
  {
    "lon": 21.5025867,
    "lat": 41.3738524,
    "name": "Борецот",
    "type": "monument",
    "full_address": "Борецот, R1303, 7513 Prilep (Vicinity), North Macedonia",
    "city": "Prilep (Vicinity)",
    "state": "Pelagonia Region"
  },
  {
    "lon": 20.6783749,
    "lat": 41.1736526,
    "name": "Сергеј Есенин",
    "type": "monument",
    "full_address": "Сергеј Есенин, Poetry's Bridge, 6330 Struga, North Macedonia",
    "city": "",
    "state": "Southwestern Region"
  },
  {
    "lon": 22.1823517,
    "lat": 42.0769461,
    "name": "Емин-бегова кула",
    "type": "monument",
    "full_address": "Emin Bey Tower, Скопска, Kratovo, North Macedonia",
    "city": "",
    "state": "Northeastern Region"
  },
  {
    "lon": 22.1826261,
    "lat": 42.0768838,
    "name": "Крстева кула",
    "type": "monument",
    "full_address": "Krste's Tower, Скопска, Kratovo, North Macedonia",
    "city": "",
    "state": "Northeastern Region"
  },
  {
    "lon": 22.6878453,
    "lat": 41.1949939,
    "name": "Споменик „Солунски фронт“ од I светска војна",
    "type": "monument",
    "full_address": "World War I Salonica Front memorial, Маршал Тито, 1487 Star Dojran, North Macedonia",
    "city": "",
    "state": "Southeastern Region"
  },
  {
    "lon": 22.1822635,
    "lat": 42.0768628,
    "name": "Хаџикостова кула",
    "type": "monument",
    "full_address": "Hadji Kostov Tower, Јосиф Даскалов, Kratovo, North Macedonia",
    "city": "",
    "state": "Northeastern Region"
  },
  {
    "lon": 22.1818109,
    "lat": 42.0792053,
    "name": "Саат-кула",
    "type": "monument",
    "full_address": "Clock Tower, Браќа Миладинови, Kratovo, North Macedonia",
    "city": "",
    "state": "Northeastern Region"
  },
  {
    "lon": 22.1809805,
    "lat": 42.0788289,
    "name": "Златковичева кула",
    "type": "monument",
    "full_address": "Zlatkovich Tower, Гоце Делчев, Kratovo, North Macedonia",
    "city": "",
    "state": "Northeastern Region"
  },
  {
    "lon": 22.1794714,
    "lat": 42.0786957,
    "name": "Симиќева кула",
    "type": "monument",
    "full_address": "Simikj Tower, Трајче Арсов, Kratovo, North Macedonia",
    "city": "",
    "state": "Northeastern Region"
  },
  {
    "lon": 22.6796979,
    "lat": 41.4409796,
    "name": "Струмица-Кристал-64",
    "type": "monument",
    "full_address": "Струмица-Кристал-64, A4, 2400 Dabilјe, North Macedonia",
    "city": "",
    "state": "Southeastern Region"
  },
  {
    "lon": 20.7958058,
    "lat": 41.1142035,
    "name": "Григор Прличев",
    "type": "tomb",
    "full_address": "Grigor Prlicev grave, Kiril i Metodij, 6000 Ohrid, North Macedonia",
    "city": "Ohrid",
    "state": "Southwestern Region"
  },
  {
    "lon": 22.9275511,
    "lat": 41.3384543,
    "name": "Тумба / Τούμπα",
    "type": "boundary_stone",
    "full_address": ">κορυφή Τούμπα, Sintiki Municipality, Greece",
    "city": "",
    "state": "Macedonia and Thrace"
  },
  {
    "lon": 21.3415263,
    "lat": 41.006774,
    "name": "Св. Троица",
    "type": "yes",
    "full_address": "St. Trinity, Панде Илковски, 7000 Bitola, North Macedonia",
    "city": "Bitola",
    "state": "Pelagonia Region"
  },
  {
    "lon": 22.5039935,
    "lat": 41.8845661,
    "name": "Теракота",
    "type": "memorial",
    "full_address": "Теракота, Angel of Vinica, 2310 Vinica, North Macedonia",
    "city": "",
    "state": "Eastern Region"
  },
  {
    "lon": 20.6778868,
    "lat": 41.1745272,
    "name": "Никола Кукунешоски - Дунѓерски",
    "type": "memorial",
    "full_address": "Poetry park, R1208, 6330 Struga, North Macedonia",
    "city": "",
    "state": "Southwestern Region"
  },
  {
    "lon": 20.6779485,
    "lat": 41.1747311,
    "name": "Крсте Јовановски",
    "type": "memorial",
    "full_address": "Крсте Јовановски, Boris Kidrich, 6330 Struga, North Macedonia",
    "city": "",
    "state": "Southwestern Region"
  },
  {
    "lon": 20.6779833,
    "lat": 41.1749451,
    "name": "Димче Кошаркоски",
    "type": "memorial",
    "full_address": "Димче Кошаркоски, Boris Kidrich, 6330 Struga, North Macedonia",
    "city": "",
    "state": "Southwestern Region"
  },
  {
    "lon": 20.6782194,
    "lat": 41.1756537,
    "name": "Боро Шаин",
    "type": "memorial",
    "full_address": "Poetry park, R1208, 6330 Struga, North Macedonia",
    "city": "",
    "state": "Southwestern Region"
  },
  {
    "lon": 20.6781791,
    "lat": 41.1755185,
    "name": "Јово Стефановски - Риле",
    "type": "memorial",
    "full_address": "Poetry park, R1208, 6330 Struga, North Macedonia",
    "city": "",
    "state": "Southwestern Region"
  },
  {
    "lon": 20.6781416,
    "lat": 41.1753893,
    "name": "Разме Малески",
    "type": "memorial",
    "full_address": "Разме Малески, Boris Kidrich, 6330 Struga, North Macedonia",
    "city": "",
    "state": "Southwestern Region"
  },
  {
    "lon": 20.6781067,
    "lat": 41.1752843,
    "name": "Петре Гончески - Гиле",
    "type": "memorial",
    "full_address": "Poetry park, R1208, 6330 Struga, North Macedonia",
    "city": "",
    "state": "Southwestern Region"
  },
  {
    "lon": 20.8033957,
    "lat": 41.05924,
    "name": "Св. Благовештение",
    "type": "wayside_shrine",
    "full_address": "Св. Благовештение, Metropol Hotel - Konjsko, Dolno Konjsko, North Macedonia",
    "city": "",
    "state": "Southwestern Region"
  },
  {
    "lon": 21.4323793,
    "lat": 41.9963577,
    "name": "Гоце Делчев",
    "type": "memorial",
    "full_address": "Goce Delchev, Macedonia Square, 1111 Skopje, North Macedonia",
    "city": "Skopje",
    "state": "Skopje Region"
  },
  {
    "lon": 21.9665342,
    "lat": 42.1003011,
    "name": "Konjuh",
    "type": "archaeological_site",
    "full_address": "Konjuh, R29277, North Macedonia",
    "city": "",
    "state": "Northeastern Region"
  },
  {
    "lon": 21.9658672,
    "lat": 42.0949995,
    "name": "Rotonda Konjuh",
    "type": "ruins",
    "full_address": "Rotonda Konjuh, R29277, Konjuh, North Macedonia",
    "city": "",
    "state": "Northeastern Region"
  },
  {
    "lon": 21.9606298,
    "lat": 42.0995746,
    "name": "Bosko Chapel",
    "type": "wayside_shrine",
    "full_address": "R29277, Konjuh, North Macedonia",
    "city": "",
    "state": "Northeastern Region"
  },
  {
    "lon": 22.289829,
    "lat": 41.7995125,
    "name": "Bargala",
    "type": "archaeological_site",
    "full_address": "Bargala, R2431, Radanje, North Macedonia",
    "city": "",
    "state": "Eastern Region"
  },
  {
    "lon": 22.7542141,
    "lat": 41.3825161,
    "name": "Roman Bathhouse",
    "type": "archaeological_site",
    "full_address": "Roman Bathhouse, R1402, 2434 Bansko, North Macedonia",
    "city": "",
    "state": "Southeastern Region"
  },
  {
    "lon": 21.4434502,
    "lat": 42.0169571,
    "name": "Doma",
    "type": "monument",
    "full_address": "Doma, Kemal Sejfulla, 1009 Skopje, North Macedonia",
    "city": "Skopje",
    "state": "Skopje Region"
  },
  {
    "lon": 21.4319995,
    "lat": 41.9952759,
    "name": "Спомен плоча на Мајка Тереза",
    "type": "memorial",
    "full_address": "Mother Teresa Old House Place, 11-ti Oktomvri, 1000 Skopje, North Macedonia",
    "city": "Skopje",
    "state": "Skopje Region"
  },
  {
    "lon": 20.8078335,
    "lat": 41.1057278,
    "name": "Ард ден Долард",
    "type": "memorial",
    "full_address": "Aard den Dolaard, Кеј Македонија, 6000 Ohrid, North Macedonia",
    "city": "Ohrid",
    "state": "Southwestern Region"
  },
  {
    "lon": 21.4422187,
    "lat": 41.958616,
    "name": "Резиденцијата Главинов",
    "type": "castle",
    "full_address": "Residence Glavinov, Hristo Tatarčev 292 А, 1000 Skopje, North Macedonia",
    "city": "Skopje",
    "state": "Skopje Region"
  },
  {
    "lon": 21.4306041,
    "lat": 41.9957136,
    "name": "Методија Андонов - Ченто",
    "type": "memorial",
    "full_address": "Методија Андонов - Ченто, Maksim Gorki, 1111 Skopje, North Macedonia",
    "city": "Skopje",
    "state": "Skopje Region"
  },
  {
    "lon": 20.9681527,
    "lat": 41.9974433,
    "name": "terminal mitnitsa tetovo",
    "type": "monument",
    "full_address": "terminal mitnitsa tetovo, Vidoe Smilevski Bato, 1200 Tetovo, North Macedonia",
    "city": "Tetovo",
    "state": "Polog Region"
  },
  {
    "lon": 21.2926787,
    "lat": 41.9885405,
    "name": "patarina-160",
    "type": "monument",
    "full_address": "patarina-160, Mother Terese, Glumovo, North Macedonia",
    "city": "",
    "state": "Skopje Region"
  },
  {
    "lon": 21.9562049,
    "lat": 41.8289715,
    "name": "Kanda - Geoglif Sv. Nikole",
    "type": "monument",
    "full_address": "Dolno Crnilishte, Vardar Region, North Macedonia",
    "city": "",
    "state": "Vardar Region"
  },
  {
    "lon": 22.6569551,
    "lat": 41.7213441,
    "name": "Споменик на Малешевскиот (Малешки) народноослободителен одред",
    "type": "memorial",
    "full_address": "Споменик на Малешевскиот (Малешки) народноослободителен одред, Budinarci, Eastern Region, North Macedonia",
    "city": "",
    "state": "Eastern Region"
  },
  {
    "lon": 20.9282003,
    "lat": 41.0043725,
    "name": "Кале",
    "type": "archaeological_site",
    "full_address": "Kale, R1307, Shurlenci, North Macedonia",
    "city": "",
    "state": "Pelagonia Region"
  },
  {
    "lon": 22.5905605,
    "lat": 41.9856377,
    "name": "Калата",
    "type": "archaeological_site",
    "full_address": "Kalata, A3, Municipality of Makedonska Kamenica, North Macedonia",
    "city": "",
    "state": "Eastern Region"
  },
  {
    "lon": 21.628172,
    "lat": 41.6952366,
    "name": "Бањичко Кале",
    "type": "archaeological_site",
    "full_address": "Banjica Fortress, R2344, Drenovo, North Macedonia",
    "city": "",
    "state": "Vardar Region"
  },
  {
    "lon": 20.7630424,
    "lat": 41.3747079,
    "name": "Mirče Acev Bataljon",
    "type": "monument",
    "full_address": "Mirče Acev Bataljon, A2, Izdeglavje, North Macedonia",
    "city": "",
    "state": "Southwestern Region"
  },
  {
    "lon": 21.4307922,
    "lat": 41.9943288,
    "name": "2 musicians and one dancing man",
    "type": "memorial",
    "full_address": "2 musicians and one dancing man, Makedonija, 1111 Skopje, North Macedonia",
    "city": "Skopje",
    "state": "Skopje Region"
  },
  {
    "lon": 20.795694,
    "lat": 41.1120953,
    "name": "Коста Абраш",
    "type": "memorial",
    "full_address": "Коста Абраш, Kosta Abrash, 6000 Ohrid, North Macedonia",
    "city": "Ohrid",
    "state": "Southwestern Region"
  },
  {
    "lon": 20.8071328,
    "lat": 41.1124032,
    "name": "Henry Dunant",
    "type": "memorial",
    "full_address": "Henry Dunant, Димитар Влахов, 6000 Ohrid, North Macedonia",
    "city": "Ohrid",
    "state": "Southwestern Region"
  },
  {
    "lon": 21.3684104,
    "lat": 41.2754595,
    "name": "Љубе Грујоски",
    "type": "monument",
    "full_address": "Ljube Grujoski, 7525 Pashino Ruvci, North Macedonia",
    "city": "",
    "state": "Pelagonia Region"
  },
  {
    "lon": 22.7227512,
    "lat": 41.1857198,
    "name": "Споменик на Дојрана",
    "type": "monument",
    "full_address": "Споменик на Дојрана, Кај 5 ти Ноември, 1487 Star Dojran, North Macedonia",
    "city": "",
    "state": "Southeastern Region"
  },
  {
    "lon": 22.7233826,
    "lat": 41.1825947,
    "name": "Чешма Света Петка",
    "type": "monument",
    "full_address": "Чешма Света Петка, Маршал Тито, 1487 Star Dojran, North Macedonia",
    "city": "",
    "state": "Southeastern Region"
  },
  {
    "lon": 20.7762352,
    "lat": 41.1850048,
    "name": "AXX110 / RA-42390",
    "type": "memorial",
    "full_address": "AXX110 / RA-42390, Горенци, Gorenci, North Macedonia",
    "city": "",
    "state": "Southwestern Region"
  },
  {
    "lon": 21.6157628,
    "lat": 41.9779001,
    "name": "PMK301 / PH-KXL",
    "type": "memorial",
    "full_address": "PMK301 / PH-KXL, A2, 1041 Bunardjik, North Macedonia",
    "city": "",
    "state": "Skopje Region"
  },
  {
    "lon": 21.5605466,
    "lat": 41.3724643,
    "name": "Дабнички масакр",
    "type": "memorial",
    "full_address": "Masacre of Dabnica, Dabnichka, 7510 Prilep, North Macedonia",
    "city": "Prilep",
    "state": "Pelagonia Region"
  },
  {
    "lon": 21.6536957,
    "lat": 41.2064953,
    "name": "Толе Паша",
    "type": "monument",
    "full_address": "Tole Pasha, R1107, Dunje, North Macedonia",
    "city": "",
    "state": "Pelagonia Region"
  },
  {
    "lon": 21.5476216,
    "lat": 42.022416,
    "name": "Ацо Ангеловски",
    "type": "memorial",
    "full_address": "Ацо Ангеловски, Методија Андонов Ченто, 1041 Brnjarci, North Macedonia",
    "city": "",
    "state": "Skopje Region"
  },
  {
    "lon": 21.5480468,
    "lat": 42.0225556,
    "name": "Кирил Петрушевски",
    "type": "memorial",
    "full_address": "Кирил Петрушевски, Методија Андонов Ченто, 1041 Brnjarci, North Macedonia",
    "city": "",
    "state": "Skopje Region"
  },
  {
    "lon": 21.5486015,
    "lat": 42.0227044,
    "name": "Ерол Готак",
    "type": "memorial",
    "full_address": "Ерол Готак, Методија Андонов Ченто, 1041 Brnjarci, North Macedonia",
    "city": "",
    "state": "Skopje Region"
  },
  {
    "lon": 21.1660504,
    "lat": 41.9764851,
    "name": "Нане Наумоски",
    "type": "memorial",
    "full_address": "Нане Наумоски, Масакр кај Карпалак, Rogle, North Macedonia",
    "city": "",
    "state": "Polog Region"
  },
  {
    "lon": 21.1773385,
    "lat": 41.977847,
    "name": "Сашо Китаноски",
    "type": "memorial",
    "full_address": "Сашо Китаноски, Масакр кај Карпалак, Rogle, North Macedonia",
    "city": "",
    "state": "Polog Region"
  },
  {
    "lon": 21.1679024,
    "lat": 41.97753,
    "name": "Бранко Секулоски",
    "type": "memorial",
    "full_address": "Бранко Секулоски, Масакр кај Карпалак, Rogle, North Macedonia",
    "city": "",
    "state": "Polog Region"
  },
  {
    "lon": 21.1745241,
    "lat": 41.9781971,
    "name": "Горан Миноски",
    "type": "memorial",
    "full_address": "Горан Миноски, Масакр кај Карпалак, Rogle, North Macedonia",
    "city": "",
    "state": "Polog Region"
  },
  {
    "lon": 21.1713626,
    "lat": 41.977893,
    "name": "Марко Деспотоски",
    "type": "memorial",
    "full_address": "Марко Деспотоски, Масакр кај Карпалак, Rogle, North Macedonia",
    "city": "",
    "state": "Polog Region"
  },
  {
    "lon": 21.1675604,
    "lat": 41.9767167,
    "name": "Ердован Шабаноски",
    "type": "memorial",
    "full_address": "Karpalak massacre, Mother Teresa, Rogle, North Macedonia",
    "city": "",
    "state": "Polog Region"
  },
  {
    "lon": 21.1694976,
    "lat": 41.9772958,
    "name": "Љубе Грујоски",
    "type": "memorial",
    "full_address": "Karpalak massacre, Mother Teresa, Rogle, North Macedonia",
    "city": "",
    "state": "Polog Region"
  },
  {
    "lon": 21.1717935,
    "lat": 41.9770406,
    "name": "Дарко Велјаноски",
    "type": "memorial",
    "full_address": "Дарко Велјаноски, R1206, Rogle, North Macedonia",
    "city": "",
    "state": "Polog Region"
  },
  {
    "lon": 21.1747438,
    "lat": 41.9767893,
    "name": "Веби Рушитоски",
    "type": "memorial",
    "full_address": "Веби Рушитоски, R1206, Rogle, North Macedonia",
    "city": "",
    "state": "Polog Region"
  },
  {
    "lon": 21.1770879,
    "lat": 41.977042,
    "name": "Пеце Секулоски",
    "type": "memorial",
    "full_address": "Пеце Секулоски, R1206, Rogle, North Macedonia",
    "city": "",
    "state": "Polog Region"
  },
  {
    "lon": 21.6256855,
    "lat": 41.3575814,
    "name": "Карпалак",
    "type": "memorial",
    "full_address": "Карпалак, R1101, Lenishte, North Macedonia",
    "city": "Lenishte",
    "state": "Pelagonia Region"
  },
  {
    "lon": 22.0284286,
    "lat": 41.4014262,
    "name": "Масакр во Ваташа",
    "type": "memorial",
    "full_address": "Vatasha Massacre, R1107, 1430 Municipality of Kavadarci, North Macedonia",
    "city": "",
    "state": "Vardar Region"
  },
  {
    "lon": 21.5583071,
    "lat": 41.3428704,
    "name": "Пере Тошев",
    "type": "tomb",
    "full_address": "Pere Toshev, Aleksandar Makedonski, 7500 Prilep, North Macedonia",
    "city": "Prilep",
    "state": "Pelagonia Region"
  },
  {
    "lon": 20.8721449,
    "lat": 41.4436592,
    "name": "Duko Tasev",
    "type": "memorial",
    "full_address": "Duko Tasev, Селска Патека, Judovo, North Macedonia",
    "city": "",
    "state": "Southwestern Region"
  },
  {
    "lon": 20.9229426,
    "lat": 41.4831122,
    "name": "Гоце Делчев",
    "type": "monument",
    "full_address": "Гоце Делчев, 6261 Drugovo, North Macedonia",
    "city": "",
    "state": "Southwestern Region"
  },
  {
    "lon": 20.9222623,
    "lat": 41.483575,
    "name": "Христо Узунов",
    "type": "monument",
    "full_address": "Hristo Uzunov EMS, Гоце Делчев, 6261 Drugovo, North Macedonia",
    "city": "",
    "state": "Southwestern Region"
  },
  {
    "lon": 20.7949057,
    "lat": 41.1150206,
    "name": "Горна Порта",
    "type": "city_gate",
    "full_address": "Upper Gate, Илинденска, 6000 Ohrid, North Macedonia",
    "city": "Ohrid",
    "state": "Southwestern Region"
  },
  {
    "lon": 20.9658462,
    "lat": 41.4528994,
    "name": "Битката на Ѓурѓејца",
    "type": "battlefield",
    "full_address": "Battle of Gjurgjejca, Патека кон с.Кладник / репетитор, 6250 Karbunica, North Macedonia",
    "city": "",
    "state": "Southwestern Region"
  },
  {
    "lon": 21.942062,
    "lat": 41.8646892,
    "name": "Споменик Св. Никола",
    "type": "monument",
    "full_address": "Monument of St. Nicholas, Плоштад Илинден, 2220 Sveti Nikole, North Macedonia",
    "city": "",
    "state": "Vardar Region"
  },
  {
    "lon": 21.9410121,
    "lat": 41.8644645,
    "name": "Споменик „Лазар Колишевски“",
    "type": "monument",
    "full_address": "Споменик „Лазар Колишевски“, City square \"Ilinden\", 2220 Sveti Nikole, North Macedonia",
    "city": "",
    "state": "Vardar Region"
  },
  {
    "lon": 21.9386585,
    "lat": 41.8627557,
    "name": "Св. Илија",
    "type": "memorial",
    "full_address": "Св. Илија, Ангел Трајчев, 2220 Sveti Nikole, North Macedonia",
    "city": "",
    "state": "Vardar Region"
  },
  {
    "lon": 22.412778,
    "lat": 41.9156602,
    "name": "Споменик на Никола Карев",
    "type": "monument",
    "full_address": "Monument to Nikola Karev, Kej na revolucijata, 2300 Kochani, North Macedonia",
    "city": "Kochani",
    "state": "Eastern Region"
  },
  {
    "lon": 21.5629735,
    "lat": 41.3464944,
    "name": "Кире Гаврилоски-Јане / Круме Волнароски-Коља",
    "type": "memorial",
    "full_address": "Kire Gavriloski-Jane / Krume Volnaroski-Kolja, Spase Temelkoski, 7510 Prilep, North Macedonia",
    "city": "Prilep",
    "state": "Pelagonia Region"
  },
  {
    "lon": 21.5572532,
    "lat": 41.3421058,
    "name": "Александар Македонски",
    "type": "memorial",
    "full_address": "Alexander The Great, Aleksandar Makedonski, 7500 Prilep, North Macedonia",
    "city": "Prilep",
    "state": "Pelagonia Region"
  },
  {
    "lon": 21.2464617,
    "lat": 41.3761727,
    "name": "Мирослав Јоксимовиќ",
    "type": "memorial",
    "full_address": "Miroslav Joksimovikj, Nikola Karev, 7550 Krushevo, North Macedonia",
    "city": "",
    "state": "Pelagonia Region"
  },
  {
    "lon": 21.2488407,
    "lat": 41.3653786,
    "name": "Кица Петрески",
    "type": "monument",
    "full_address": "Kica Petreski, Коча Миленку, 7550 Krushevo, North Macedonia",
    "city": "",
    "state": "Pelagonia Region"
  },
  {
    "lon": 21.6650899,
    "lat": 41.8668125,
    "name": "VAM-304",
    "type": "monument",
    "full_address": "VAM-304, R2131, 1034 Katlanovo, North Macedonia",
    "city": "",
    "state": "Skopje Region"
  },
  {
    "lon": 22.6491133,
    "lat": 41.4498577,
    "name": "МАР-7712",
    "type": "monument",
    "full_address": "МАР-7712, Leninova, 2400 Strumica, North Macedonia",
    "city": "Strumica",
    "state": "Southeastern Region"
  },
  {
    "lon": 20.6489384,
    "lat": 41.366045,
    "name": "1. Бригада",
    "type": "memorial",
    "full_address": "1st Brigade, R2243, Lokov, North Macedonia",
    "city": "",
    "state": "Southwestern Region"
  },
  {
    "lon": 21.4292436,
    "lat": 41.9998632,
    "name": "Ослободителите на Скопје",
    "type": "monument",
    "full_address": "Monument to the Liberators of Skopje, Bulevar Ilinden, 1111 Skopje, North Macedonia",
    "city": "Skopje",
    "state": "Skopje Region"
  },
  {
    "lon": 21.5549177,
    "lat": 41.3435127,
    "name": "08.12.1941",
    "type": "memorial",
    "full_address": "Kosta Solev-Kocho Racin EMS, Borka Taleski-Modernoto 64, 7500 Prilep, North Macedonia",
    "city": "Prilep",
    "state": "Pelagonia Region"
  },
  {
    "lon": 20.9185104,
    "lat": 42.0673767,
    "name": "Вејце",
    "type": "monument",
    "full_address": "Вејце, To Peak Treskavec, Vejce, North Macedonia",
    "city": "",
    "state": "Polog Region"
  },
  {
    "lon": 21.4485415,
    "lat": 41.9998618,
    "name": "Генерал Михаило Апостолски",
    "type": "monument",
    "full_address": "Генерал Михаило Апостолски, Bulevar Aleksandar Makedonski, 1001 Skopje, North Macedonia",
    "city": "Skopje",
    "state": "Skopje Region"
  },
  {
    "lon": 21.4506665,
    "lat": 41.9988251,
    "name": "Генерал Михајло Апостолски",
    "type": "memorial",
    "full_address": "Генерал Михајло Апостолски, Belasica, 1001 Skopje, North Macedonia",
    "city": "Skopje",
    "state": "Skopje Region"
  },
  {
    "lon": 21.4412009,
    "lat": 41.9960184,
    "name": "Krste Petkov Misirkov",
    "type": "monument",
    "full_address": "Krste Petkov Misirkov, Kej Dimitar Vlahov, 1001 Skopje, North Macedonia",
    "city": "Skopje",
    "state": "Skopje Region"
  },
  {
    "lon": 21.4408764,
    "lat": 41.9960802,
    "name": "Blaže Koneski",
    "type": "monument",
    "full_address": "Blaže Koneski, Bulevar Krste Petkov Misirkov, 1001 Skopje, North Macedonia",
    "city": "Skopje",
    "state": "Skopje Region"
  },
  {
    "lon": 21.0216359,
    "lat": 41.6560282,
    "name": "Sultana",
    "type": "memorial",
    "full_address": "Sultana, Papradishte - Kjafa, 6254 Kjafa, North Macedonia",
    "city": "",
    "state": "Polog Region"
  },
  {
    "lon": 20.881732,
    "lat": 41.7192252,
    "name": "Xhemë Hasa",
    "type": "memorial",
    "full_address": "Xhemë Hasa, Narrow gauge railway Skopje - Ohrid, Simnica, North Macedonia",
    "city": "",
    "state": "Polog Region"
  },
  {
    "lon": 20.9510739,
    "lat": 41.5964956,
    "name": "Albanian Mother",
    "type": "memorial",
    "full_address": "Albanian Mother, A2, Zajas, North Macedonia",
    "city": "",
    "state": "Southwestern Region"
  },
  {
    "lon": 21.3208996,
    "lat": 41.0108476,
    "name": "Св. Георгиј",
    "type": "wayside_shrine",
    "full_address": "Kanalka 1, 7000 Lavci, North Macedonia",
    "city": "",
    "state": "Pelagonia Region"
  },
  {
    "lon": 20.799333,
    "lat": 41.1119818,
    "name": "Фаќач на чесниот крст",
    "type": "monument",
    "full_address": "Фаќач на чесниот крст, Tsar Samoil, 6000 Ohrid, North Macedonia",
    "city": "Ohrid",
    "state": "Southwestern Region"
  },
  {
    "lon": 21.4326511,
    "lat": 41.9945304,
    "name": "Павел Шатев",
    "type": "monument",
    "full_address": "Pavel Šatev, 11-ti Oktomvri, 1111 Skopje, North Macedonia",
    "city": "Skopje",
    "state": "Skopje Region"
  },
  {
    "lon": 21.4332709,
    "lat": 41.993726,
    "name": "Невена Георгиева-Дуња",
    "type": "memorial",
    "full_address": "Невена Георгиева-Дуња, 11-ti Oktomvri, 1111 Skopje, North Macedonia",
    "city": "Skopje",
    "state": "Skopje Region"
  },
  {
    "lon": 21.0288552,
    "lat": 42.0640097,
    "name": "Ѓоко Лазаревски",
    "type": "monument",
    "full_address": "Gjoko Lazarevski, R1203, 1200 Leshok, North Macedonia",
    "city": "",
    "state": "Polog Region"
  },
  {
    "lon": 21.027212,
    "lat": 42.0700178,
    "name": "Теодорит",
    "type": "tomb",
    "full_address": "Теодорит, R1203, Leshok, North Macedonia",
    "city": "",
    "state": "Polog Region"
  },
  {
    "lon": 21.0282911,
    "lat": 42.0669654,
    "name": "Кирил Пејчиновиќ-Тетоец",
    "type": "tomb",
    "full_address": "Kiril Pejchinovikj-Tetoec, R1203, 1200 Leshok, North Macedonia",
    "city": "",
    "state": "Polog Region"
  },
  {
    "lon": 21.0285176,
    "lat": 42.0668701,
    "name": "Загинати Лешочани во војните 1903-2001",
    "type": "monument",
    "full_address": "Загинати Лешочани во војните 1903-2001, R1203, 1200 Leshok, North Macedonia",
    "city": "",
    "state": "Polog Region"
  },
  {
    "lon": 20.798276,
    "lat": 41.1141534,
    "name": "Нада Филева",
    "type": "memorial",
    "full_address": "Nada Fileva, 11-ти Октомври, 6000 Ohrid, North Macedonia",
    "city": "Ohrid",
    "state": "Southwestern Region"
  },
  {
    "lon": 21.4185013,
    "lat": 42.0043082,
    "name": "Dane kraptzew",
    "type": "memorial",
    "full_address": "Dane kraptzew, Albert Ajnštajn, 1000 Skopje, North Macedonia",
    "city": "Skopje",
    "state": "Skopje Region"
  },
  {
    "lon": 21.4296159,
    "lat": 41.9918182,
    "name": "Атентат на Киро Глигоров",
    "type": "memorial",
    "full_address": "Atentat of Kiro Gligorov, Makedonija, 1111 Skopje, North Macedonia",
    "city": "Skopje",
    "state": "Skopje Region"
  },
  {
    "lon": 21.6070578,
    "lat": 41.3643261,
    "name": "Св. Петка",
    "type": "wayside_shrine",
    "full_address": "R1101, 7510 Lenishte, North Macedonia",
    "city": "Lenishte",
    "state": "Pelagonia Region"
  },
  {
    "lon": 21.3293819,
    "lat": 41.018858,
    "name": "Ф-86Е",
    "type": "aircraft",
    "full_address": "F-86E, Григор Прличев, 7000 Bitola, North Macedonia",
    "city": "Bitola",
    "state": "Pelagonia Region"
  },
  {
    "lon": 21.3292773,
    "lat": 41.0186718,
    "name": "Ф-86Д",
    "type": "aircraft",
    "full_address": "F-86D, Григор Прличев, 7000 Bitola, North Macedonia",
    "city": "Bitola",
    "state": "Pelagonia Region"
  },
  {
    "lon": 22.4105061,
    "lat": 41.9135927,
    "name": "Браќата Просветители Св. Кирил и Методиј",
    "type": "monument",
    "full_address": "Браќата Просветители Св. Кирил и Методиј, Gligor Apostolov Gocho, 2300 Kochani, North Macedonia",
    "city": "Kochani",
    "state": "Eastern Region"
  },
  {
    "lon": 22.410612,
    "lat": 41.9143473,
    "name": "Љупчо Сантов",
    "type": "monument",
    "full_address": "Љупчо Сантов, Stevo Teodosievski, 2300 Kochani, North Macedonia",
    "city": "Kochani",
    "state": "Eastern Region"
  },
  {
    "lon": 21.4572557,
    "lat": 41.204511,
    "name": "Братска гробница",
    "type": "tomb",
    "full_address": "Братска гробница, R2340, 7512 Klepach, North Macedonia",
    "city": "",
    "state": "Pelagonia Region"
  },
  {
    "lon": 21.6216919,
    "lat": 41.9755167,
    "name": "Сухои Су-25УБ",
    "type": "aircraft",
    "full_address": "A2, 1043 Miladinovci, North Macedonia",
    "city": "",
    "state": "Skopje Region"
  },
  {
    "lon": 21.6219516,
    "lat": 41.9754577,
    "name": "Сухои Су-25К",
    "type": "aircraft",
    "full_address": "Sukhoi Su25K, A2, 1043 Miladinovci, North Macedonia",
    "city": "",
    "state": "Skopje Region"
  },
  {
    "lon": 21.6221983,
    "lat": 41.9753556,
    "name": "Сухои Су-25К",
    "type": "aircraft",
    "full_address": "People's hero Strahil Pindzhurov-Strasho Pindzhur, Friendship, 1043 Miladinovci, North Macedonia",
    "city": "",
    "state": "Skopje Region"
  },
  {
    "lon": 21.6224322,
    "lat": 41.975287,
    "name": "Сухои Су-25К",
    "type": "aircraft",
    "full_address": "A2, 1043 Miladinovci, North Macedonia",
    "city": "",
    "state": "Skopje Region"
  },
  {
    "lon": 21.6200758,
    "lat": 41.4286415,
    "name": "Игуменија Катерина",
    "type": "tomb",
    "full_address": "Игуменија Катерина, R1312, Prisad, North Macedonia",
    "city": "",
    "state": "Pelagonia Region"
  },
  {
    "lon": 20.8876605,
    "lat": 41.8781835,
    "name": "Naim Frasheri",
    "type": "monument",
    "full_address": "Naim Frasheri, R29278, 1235 Negotino, North Macedonia",
    "city": "",
    "state": "Polog Region"
  },
  {
    "lon": 20.8835051,
    "lat": 41.878351,
    "name": "Naser Ademi",
    "type": "monument",
    "full_address": "Naser Ademi, R1206, 1236 Negotino, North Macedonia",
    "city": "",
    "state": "Polog Region"
  },
  {
    "lon": 20.883467,
    "lat": 41.8782156,
    "name": "Deshmoret e Ushtrise Clirimtare Kombetare",
    "type": "monument",
    "full_address": "Deshmoret e Ushtrise Clirimtare Kombetare, R1206, 1236 Negotino, North Macedonia",
    "city": "",
    "state": "Polog Region"
  },
  {
    "lon": 22.1778987,
    "lat": 42.0001506,
    "name": "Јаким Д Стојковски",
    "type": "memorial",
    "full_address": "Јаким Д Стојковски, Јордан Стојанов, Probishtip, North Macedonia",
    "city": "",
    "state": "Eastern Region"
  },
  {
    "lon": 22.5027575,
    "lat": 41.8768098,
    "name": "Viničko Kale",
    "type": "castle",
    "full_address": "Viničko Kale, 30 Avgust, 2310 Vinica, North Macedonia",
    "city": "",
    "state": "Eastern Region"
  },
  {
    "lon": 20.6778798,
    "lat": 41.1757975,
    "name": "Нико Нестор-Дживджан",
    "type": "memorial",
    "full_address": "Нико Нестор-Дживджан, Dimche Kovacheski, 6330 Struga, North Macedonia",
    "city": "",
    "state": "Southwestern Region"
  },
  {
    "lon": 20.6791018,
    "lat": 41.1756353,
    "name": "Дрини дент",
    "type": "memorial",
    "full_address": "Дрини дент, Boris Kidrich, 6330 Struga, North Macedonia",
    "city": "",
    "state": "Southwestern Region"
  },
  {
    "lon": 21.3631045,
    "lat": 42.0080767,
    "name": "99.4-025",
    "type": "locomotive",
    "full_address": "Булевар Македонска Војска, 1060 Skopje, North Macedonia",
    "city": "Skopje",
    "state": "Skopje Region"
  },
  {
    "lon": 21.4618597,
    "lat": 41.9780627,
    "name": "83-064",
    "type": "locomotive",
    "full_address": "С.У.Г.С. Владо Тасевски, Treta makedonska brigada, 1001 Skopje, North Macedonia",
    "city": "Skopje",
    "state": "Skopje Region"
  },
  {
    "lon": 21.4328484,
    "lat": 41.9964125,
    "name": "Споменик „Солунски атентатори и Гемиџии“",
    "type": "memorial",
    "full_address": "Споменик „Солунски атентатори и Гемиџии“, Kej 13-ti Noemvri, 1111 Skopje, North Macedonia",
    "city": "Skopje",
    "state": "Skopje Region"
  },
  {
    "lon": 21.288822,
    "lat": 41.9538189,
    "name": "Света Троица и Свети Ѓорѓија",
    "type": "ruins",
    "full_address": "Holy Trinity and Holy George, Sveta Nedela, Matka, North Macedonia",
    "city": "",
    "state": "Skopje Region"
  },
  {
    "lon": 21.1617392,
    "lat": 41.8117124,
    "name": "Голема Пеш",
    "type": "archaeological_site",
    "full_address": "Golema Pesht, R1106, Zdunje, North Macedonia",
    "city": "",
    "state": "Southwestern Region"
  },
  {
    "lon": 21.4174425,
    "lat": 42.005709,
    "type": "museum",
    "name": "Природонаучен Музеј",
    "full_address": "Zoo Skopje, Bulevar Ilinden, 1000 Skopje, North Macedonia",
    "city": "Skopje",
    "state": "Skopje Region"
  },
  {
    "lon": 21.3001786,
    "lat": 42.0690911,
    "type": "place_of_worship",
    "name": "Манастир Св. Ѓорѓија",
    "full_address": "Манастир Св. Ѓорѓија, Улица 103, Kuchkovo, North Macedonia",
    "city": "",
    "state": "Skopje Region"
  },
  {
    "lon": 22.8566138,
    "lat": 41.7077548,
    "type": "museum",
    "name": "Музеј на град Берово",
    "full_address": "Berovo Town Museum, Ilindenska, 2330 Berovo, North Macedonia",
    "city": "",
    "state": "Eastern Region"
  },
  {
    "lon": 22.859018,
    "lat": 41.701039,
    "type": "place_of_worship",
    "name": "Манастир Св. Архангел Михаил",
    "full_address": "Monastery, Marshal Tito, 2230 Berovo, North Macedonia",
    "city": "",
    "state": "Eastern Region"
  },
  {
    "lon": 22.0163228,
    "lat": 41.4343634,
    "type": "museum",
    "name": "Музеј Галерија Кавадарци",
    "full_address": "Muzej Galerija Kavadarci, 7 Septemvri, 1430 Kavadarci, North Macedonia",
    "city": "Kavadarci",
    "state": "Vardar Region"
  },
  {
    "lon": 20.7961416,
    "lat": 41.112361,
    "type": "museum",
    "name": "Куќа на Робевци",
    "full_address": "Robev Family House, Car Samoil 62, 6000 Ohrid, North Macedonia",
    "city": "Ohrid",
    "state": "Southwestern Region"
  },
  {
    "lon": 21.4314474,
    "lat": 41.9959035,
    "type": "statue",
    "name": "Споменик на Александар Македонски",
    "full_address": "Statue of Alexander the Great, Macedonia Square, 1111 Skopje, North Macedonia",
    "city": "Skopje",
    "state": "Skopje Region"
  },
  {
    "lon": 22.4677492,
    "lat": 41.6350875,
    "type": "place_of_worship",
    "name": "Св.Тројца",
    "full_address": "Sv.Trojca, Bulevard Aleksandar Makedonski, 2420 Radovish, North Macedonia",
    "city": "",
    "state": "Southeastern Region"
  },
  {
    "lon": 22.5049622,
    "lat": 41.8841902,
    "type": "museum",
    "name": "Museum Teracotta",
    "full_address": "Museum Teracotta, Angel of Vinica 1a, 2310 Vinica, North Macedonia",
    "city": "",
    "state": "Eastern Region"
  },
  {
    "lon": 20.7415162,
    "lat": 40.9131005,
    "type": "place_of_worship",
    "name": "Црква Света Петка",
    "full_address": "Saint Petka Church, R1301, Lubanishta, North Macedonia",
    "city": "",
    "state": "Southwestern Region"
  },
  {
    "lon": 21.2991931,
    "lat": 41.9505936,
    "type": "place_of_worship",
    "name": "Манастир Св. Андреј",
    "full_address": "Monastery St. Andrej, Přehrada Matka - hráz, Matka, North Macedonia",
    "city": "",
    "state": "Skopje Region"
  },
  {
    "lon": 21.3042042,
    "lat": 41.951833,
    "type": "place_of_worship",
    "name": "Св. Никола",
    "full_address": "Св. Никола, Мечкина Дупка, Shishevo, North Macedonia",
    "city": "",
    "state": "Skopje Region"
  },
  {
    "lon": 22.7221034,
    "lat": 41.1871817,
    "type": "museum",
    "name": "Музеј на Дојран",
    "full_address": "Музеј на Дојран, Кај 5 ти Ноември, 1487 Star Dojran, North Macedonia",
    "city": "",
    "state": "Southeastern Region"
  },
  {
    "lon": 21.4349949,
    "lat": 41.9984602,
    "type": "statue",
    "name": "Филип II Македонски",
    "full_address": "Karpoš Uprising Square, 1111 Skopje, North Macedonia",
    "city": "Skopje",
    "state": "Skopje Region"
  },
  {
    "lon": 21.4254968,
    "lat": 41.9983057,
    "type": "statue",
    "name": "Св. Климент Охридски",
    "full_address": "Bulevar Sveti Kliment Ohridski, 1111 Skopje, North Macedonia",
    "city": "Skopje",
    "state": "Skopje Region"
  },
  {
    "lon": 21.437162,
    "lat": 41.9993163,
    "type": "statue",
    "name": "Скендербег",
    "full_address": "Skanderbeg Square, 1111 Skopje, North Macedonia",
    "city": "Skopje",
    "state": "Skopje Region"
  },
  {
    "lon": 22.2447656,
    "lat": 41.4085959,
    "type": "museum",
    "name": "Museum of Wine",
    "full_address": "Museum of Wine, Marshal Tito, 1442 Demir Kapija, North Macedonia",
    "city": "",
    "state": "Vardar Region"
  },
  {
    "lon": 21.6864385,
    "lat": 41.8289199,
    "type": "place_of_worship",
    "name": "Manastir Sveta Bogorodica",
    "full_address": "Manastir Sveta Bogorodica, Friendship, Vetersko, North Macedonia",
    "city": "",
    "state": "Vardar Region"
  },
  {
    "lon": 20.8043628,
    "lat": 41.0738678,
    "type": "place_of_worship",
    "name": "Св. Стефан",
    "full_address": "St. Stephen, R1301, 6000 Shipokno, North Macedonia",
    "city": "",
    "state": "Southwestern Region"
  },
  {
    "lon": 20.6776078,
    "lat": 41.1805738,
    "type": "museum",
    "name": "Д-р Никола Незлобински",
    "full_address": "Д-р Никола Незлобински, Боро Хаџиески, 6330 Struga, North Macedonia",
    "city": "",
    "state": "Southwestern Region"
  },
  {
    "lon": 21.6894737,
    "lat": 41.8286581,
    "type": "place_of_worship",
    "name": "Manastir Sveti Jovan",
    "full_address": "Manastir Sveti Jovan, Friendship, Vetersko, North Macedonia",
    "city": "",
    "state": "Vardar Region"
  },
  {
    "lon": 22.0181317,
    "lat": 41.4184594,
    "type": "museum",
    "name": "Спомен куќа на Страшо Пинџур",
    "full_address": "Memorial house - Strasho Pindjur, Boro Vataskhi, 1430 Municipality of Kavadarci, North Macedonia",
    "city": "",
    "state": "Vardar Region"
  },
  {
    "lon": 22.3348959,
    "lat": 42.2020133,
    "type": "museum",
    "name": "City Museum",
    "full_address": "City Museum, Свети Јоаким Осоговски, 1330 Kriva Palanka, North Macedonia",
    "city": "",
    "state": "Northeastern Region"
  },
  {
    "lon": 22.5651714,
    "lat": 41.4748537,
    "type": "place_of_worship",
    "name": "Манастир Св. Богородица Елеуса",
    "full_address": "Monastery of the Mother of God Eleusa, R2432, Veljusa, North Macedonia",
    "city": "",
    "state": "Southeastern Region"
  },
  {
    "lon": 22.5902413,
    "lat": 41.4505759,
    "type": "place_of_worship",
    "name": "Манастир Св. Леонтиј",
    "full_address": "St. Leontius Monastery, R2432, 2400 Vodocha, North Macedonia",
    "city": "",
    "state": "Southeastern Region"
  },
  {
    "lon": 22.7729986,
    "lat": 41.9664768,
    "type": "museum",
    "name": "Музеј на град Делчево",
    "full_address": "House of Culture - N. J. Vapcarov, N. J. Vapcarov, 2320 Delchevo, North Macedonia",
    "city": "",
    "state": "Eastern Region"
  },
  {
    "lon": 21.426153,
    "lat": 41.9952169,
    "type": "statue",
    "name": "Josip Broz Tito",
    "full_address": "Dimitrie Čupovski, 1000 Skopje, North Macedonia",
    "city": "Skopje",
    "state": "Skopje Region"
  },
  {
    "lon": 22.1831257,
    "lat": 42.0758863,
    "type": "place_of_worship",
    "name": "Св. Јован Крстител",
    "full_address": "St. John the Baptist, Јосиф Даскалов, Kratovo, North Macedonia",
    "city": "",
    "state": "Northeastern Region"
  },
  {
    "lon": 21.4339766,
    "lat": 41.9977079,
    "type": "statue",
    "name": "Св. Кирил и Методиј",
    "full_address": "Karpoš Uprising Square, 1111 Skopje, North Macedonia",
    "city": "Skopje",
    "state": "Skopje Region"
  },
  {
    "lon": 21.4341509,
    "lat": 41.9975624,
    "type": "statue",
    "name": "Св. Климент Охридски и Наум Охридски Чудотворец",
    "full_address": "Karpoš Uprising Square, 1111 Skopje, North Macedonia",
    "city": "Skopje",
    "state": "Skopje Region"
  },
  {
    "lon": 21.4313414,
    "lat": 41.9953917,
    "type": "statue",
    "name": "Цар Самоил",
    "full_address": "Macedonia Square, 1000 Skopje, North Macedonia",
    "city": "Skopje",
    "state": "Skopje Region"
  },
  {
    "lon": 21.4321474,
    "lat": 41.9964949,
    "type": "statue",
    "name": "Даме Груев",
    "full_address": "Macedonia Square, 1111 Skopje, North Macedonia",
    "city": "Skopje",
    "state": "Skopje Region"
  },
  {
    "lon": 21.4323054,
    "lat": 41.9968799,
    "type": "statue",
    "name": "Јустинијан I",
    "full_address": "Justinian I, Macedonia Square, 1111 Skopje, North Macedonia",
    "city": "Skopje",
    "state": "Skopje Region"
  },
  {
    "lon": 21.4344182,
    "lat": 41.9979046,
    "type": "statue",
    "name": "Олимпија",
    "full_address": "Фонтана „Олимпија - Мајка на Александар III Македонски“, Karpoš Uprising Square, 1111 Skopje, North Macedonia",
    "city": "Skopje",
    "state": "Skopje Region"
  },
  {
    "lon": 21.3415263,
    "lat": 41.006774,
    "type": "place_of_worship",
    "name": "Св. Троица",
    "full_address": "St. Trinity, Панде Илковски, 7000 Bitola, North Macedonia",
    "city": "Bitola",
    "state": "Pelagonia Region"
  },
  {
    "lon": 20.8227937,
    "lat": 41.0881175,
    "type": "place_of_worship",
    "name": "Свети Тројца Архиереи",
    "full_address": "Свети Тројца Архиереи, Велестово - Два Јавора, 6000 Racha, North Macedonia",
    "city": "",
    "state": "Southwestern Region"
  },
  {
    "lon": 21.0506131,
    "lat": 41.0240503,
    "type": "museum",
    "name": "Eтнолошки музеј",
    "full_address": "Ethnographic museum, R1308, Podmochani, North Macedonia",
    "city": "",
    "state": "Pelagonia Region"
  },
  {
    "lon": 21.4323793,
    "lat": 41.9963577,
    "type": "statue",
    "name": "Гоце Делчев",
    "full_address": "Goce Delchev, Macedonia Square, 1111 Skopje, North Macedonia",
    "city": "Skopje",
    "state": "Skopje Region"
  },
  {
    "lon": 20.652723,
    "lat": 41.5939237,
    "type": "museum",
    "name": "Museum of Galichnik's cultural heritage",
    "full_address": "Museum of Galichnik's cultural heritage, Janče - Galičnik, 1254 Galichnik, North Macedonia",
    "city": "",
    "state": "Polog Region"
  },
  {
    "lon": 21.4293515,
    "lat": 41.9950349,
    "type": "statue",
    "name": "Споменик на Христо Узунов",
    "full_address": "Nikola Vapcarov, 1111 Skopje, North Macedonia",
    "city": "Skopje",
    "state": "Skopje Region"
  },
  {
    "lon": 21.3865879,
    "lat": 41.9989569,
    "type": "museum",
    "name": "Galerija RA",
    "full_address": "Gallery RA, Adolf Ciborovski 94, 1000 Skopje, North Macedonia",
    "city": "Skopje",
    "state": "Skopje Region"
  },
  {
    "lon": 22.6364291,
    "lat": 41.4354106,
    "type": "museum",
    "name": "Museum Strumica",
    "full_address": "Museum Strumica, Кочо Рацин, 2400 Strumica, North Macedonia",
    "city": "Strumica",
    "state": "Southeastern Region"
  },
  {
    "lon": 22.3621503,
    "lat": 42.2089207,
    "type": "place_of_worship",
    "name": "Saint Joachim Osogovski",
    "full_address": "Saint Joachim Osogovski, kon manastir Sv. Joakim Osogovski, 1330 Municipality of Kriva Palanka, North Macedonia",
    "city": "",
    "state": "Northeastern Region"
  },
  {
    "lon": 22.5220207,
    "lat": 41.1488082,
    "type": "museum",
    "name": "Vardarski Rid",
    "full_address": "Vardar Hill, Friendship, 1480 Gevgelija, North Macedonia",
    "city": "Gevgelija",
    "state": "Southeastern Region"
  },
  {
    "lon": 20.7970433,
    "lat": 41.1123275,
    "type": "museum",
    "name": "House of Lambeski",
    "full_address": "House of Lambeski, Car Samoil, 6000 Ohrid, North Macedonia",
    "city": "Ohrid",
    "state": "Southwestern Region"
  }
]